MKey,NTSBNumber,Report,EventDate,City,StateOrRegion,Country,Latitude,Longitude,FatalInjuries,SeriousInjuries,InjuryLevel,InjuryCategory,IsFatal
82603,ERA12CA134,https://data.ntsb.gov/carol-repgen/api/Aviation/ReportMain/GenerateNewestReport/82603/pdf,1/2/2012,River Ranch,Florida,United States,27.900831,-81.580116,0,0,Non-Fatal,non-fatal,False
82632,ERA12CA137,https://data.ntsb.gov/carol-repgen/api/Aviation/ReportMain/GenerateNewestReport/82632/pdf,1/6/2012,St Petersburg,Florida,United States,27.750833,-82.622779,0,0,Non-Fatal,non-fatal,False
82635,ERA12CA140,https://data.ntsb.gov/carol-repgen/api/Aviation/ReportMain/GenerateNewestReport/82635/pdf,1/7/2012,Umatilla,Florida,United States,28.921112,-81.651107,0,0,Non-Fatal,non-fatal,False
82714,ERA12FA151,https://data.ntsb.gov/carol-repgen/api/Aviation/ReportMain/GenerateNewestReport/82714/pdf,1/22/2012,Quincy,Florida,United States,30.603889,-84.546943,1,0,Fatal,fatal,True
82746,ERA12LA157,https://data.ntsb.gov/carol-repgen/api/Aviation/ReportMain/GenerateNewestReport/82746/pdf,1/25/2012,Port Orange,Florida,United States,29.074722,-81.041389,0,0,Non-Fatal,non-fatal,False
82755,ERA12FA161,https://data.ntsb.gov/carol-repgen/api/Aviation/ReportMain/GenerateNewestReport/82755/pdf,1/27/2012,Ocala,Florida,United States,29.149166,-82.22528,1,1,Fatal,fatal,True
82762,ERA12LA164,https://data.ntsb.gov/carol-repgen/api/Aviation/ReportMain/GenerateNewestReport/82762/pdf,1/28/2012,Clearwater,Florida,United States,27.908611,-82.719444,0,0,Non-Fatal,non-fatal,False
82776,ERA12LA165,https://data.ntsb.gov/carol-repgen/api/Aviation/ReportMain/GenerateNewestReport/82776/pdf,1/28/2012,Palm Beach,Florida,United States,26.770555,-80.035278,0,0,Non-Fatal,non-fatal,False
82784,ERA12CA167,https://data.ntsb.gov/carol-repgen/api/Aviation/ReportMain/GenerateNewestReport/82784/pdf,1/29/2012,Sarasota,Florida,United States,27.390556,-82.55278,0,0,Non-Fatal,non-fatal,False
82826,ERA12LA171,https://data.ntsb.gov/carol-repgen/api/Aviation/ReportMain/GenerateNewestReport/82826/pdf,2/6/2012,Minneola,Florida,United States,28.6275,-81.80278,0,1,Non-Fatal,non-fatal,False
82839,ERA12CA173,https://data.ntsb.gov/carol-repgen/api/Aviation/ReportMain/GenerateNewestReport/82839/pdf,2/7/2012,Winter Haven,Florida,United States,28.062778,-81.753334,0,0,Non-Fatal,non-fatal,False
82885,ERA12CA178,https://data.ntsb.gov/carol-repgen/api/Aviation/ReportMain/GenerateNewestReport/82885/pdf,2/10/2012,Miami,Florida,United States,25.647777,-80.432777,0,0,Non-Fatal,non-fatal,False
82967,ERA12FA193,https://data.ntsb.gov/carol-repgen/api/Aviation/ReportMain/GenerateNewestReport/82967/pdf,2/23/2012,Key West,Florida,United States,24.602222,-81.750556,2,0,Fatal,fatal,True
82994,ERA12FA196,https://data.ntsb.gov/carol-repgen/api/Aviation/ReportMain/GenerateNewestReport/82994/pdf,2/29/2012,Melbourne,Florida,United States,28.092777,-80.659721,3,0,Fatal,fatal,True
83000,ERA12CA198,https://data.ntsb.gov/carol-repgen/api/Aviation/ReportMain/GenerateNewestReport/83000/pdf,3/1/2012,Boca Raton,Florida,United States,26.378334,-80.107498,0,0,Non-Fatal,non-fatal,False
83049,ERA12LA210,https://data.ntsb.gov/carol-repgen/api/Aviation/ReportMain/GenerateNewestReport/83049/pdf,3/6/2012,Titusville,Florida,United States,28.458333,-80.86222,0,0,Non-Fatal,non-fatal,False
83084,ERA12LA219,https://data.ntsb.gov/carol-repgen/api/Aviation/ReportMain/GenerateNewestReport/83084/pdf,3/9/2012,Homestead,Florida,United States,25.329999,-80.377777,0,0,Non-Fatal,non-fatal,False
83142,ERA12LA227,https://data.ntsb.gov/carol-repgen/api/Aviation/ReportMain/GenerateNewestReport/83142/pdf,3/15/2012,Niceville,Florida,United States,30.537221,-86.436111,2,0,Fatal,fatal,True
83148,ERA12LA229,https://data.ntsb.gov/carol-repgen/api/Aviation/ReportMain/GenerateNewestReport/83148/pdf,3/16/2012,Venice,Florida,United States,27.071388,-82.440277,0,0,Non-Fatal,non-fatal,False
83166,ERA12LA234,https://data.ntsb.gov/carol-repgen/api/Aviation/ReportMain/GenerateNewestReport/83166/pdf,3/16/2012,Pensacola,Florida,United States,30.419721,-87.193054,0,0,Non-Fatal,non-fatal,False
83170,ERA12CA236,https://data.ntsb.gov/carol-repgen/api/Aviation/ReportMain/GenerateNewestReport/83170/pdf,3/12/2012,New Smyrna,Florida,United States,28.97861,-80.925003,0,0,Non-Fatal,non-fatal,False
83184,ERA12CA242,https://data.ntsb.gov/carol-repgen/api/Aviation/ReportMain/GenerateNewestReport/83184/pdf,3/18/2012,New Smyrna,Florida,United States,28.978889,-80.925003,0,0,Non-Fatal,non-fatal,False
83193,ERA12CA244,https://data.ntsb.gov/carol-repgen/api/Aviation/ReportMain/GenerateNewestReport/83193/pdf,3/18/2012,Clearwater,Florida,United States,27.976667,-82.758613,0,0,Non-Fatal,non-fatal,False
83195,ERA12CA245,https://data.ntsb.gov/carol-repgen/api/Aviation/ReportMain/GenerateNewestReport/83195/pdf,3/20/2012,Clearwater,Florida,United States,27.976667,-82.758613,0,0,Non-Fatal,non-fatal,False
83204,ERA12LA250,https://data.ntsb.gov/carol-repgen/api/Aviation/ReportMain/GenerateNewestReport/83204/pdf,3/23/2012,Wellington,Florida,United States,26.465555,-80.149719,0,1,Non-Fatal,non-fatal,False
83206,ERA12TA251,https://data.ntsb.gov/carol-repgen/api/Aviation/ReportMain/GenerateNewestReport/83206/pdf,3/23/2012,Delray Beach,Florida,United States,26.455278,-80.196113,0,0,Non-Fatal,non-fatal,False
83207,ERA12LA252,https://data.ntsb.gov/carol-repgen/api/Aviation/ReportMain/GenerateNewestReport/83207/pdf,3/24/2012,Deland,Florida,United States,29.066944,-81.283889,0,0,Non-Fatal,non-fatal,False
83212,ERA12CA254,https://data.ntsb.gov/carol-repgen/api/Aviation/ReportMain/GenerateNewestReport/83212/pdf,3/25/2012,Groveland,Florida,United States,28.03861,-81.753608,0,0,Non-Fatal,non-fatal,False
83258,ERA12LA259,https://data.ntsb.gov/carol-repgen/api/Aviation/ReportMain/GenerateNewestReport/83258/pdf,3/24/2012,Brooksville,Florida,United States,28.473611,-82.455558,0,0,Non-Fatal,non-fatal,False
83260,ERA12LA261,https://data.ntsb.gov/carol-repgen/api/Aviation/ReportMain/GenerateNewestReport/83260/pdf,3/31/2012,Lake Wales,Florida,United States,27.952222,-81.60083,0,0,Non-Fatal,non-fatal,False
83272,ERA12LA264,https://data.ntsb.gov/carol-repgen/api/Aviation/ReportMain/GenerateNewestReport/83272/pdf,4/1/2012,Plant City,Florida,United States,28.135555,-82.141113,0,1,Non-Fatal,non-fatal,False
83275,ERA12FA265,https://data.ntsb.gov/carol-repgen/api/Aviation/ReportMain/GenerateNewestReport/83275/pdf,4/2/2012,Deland,Florida,United States,29.056388,-81.300834,0,3,Non-Fatal,non-fatal,False
83316,ERA12FA271,https://data.ntsb.gov/carol-repgen/api/Aviation/ReportMain/GenerateNewestReport/83316/pdf,4/6/2012,Everglades City,Florida,United States,25.852777,-81.390274,1,0,Fatal,fatal,True
83347,ERA12LA274,https://data.ntsb.gov/carol-repgen/api/Aviation/ReportMain/GenerateNewestReport/83347/pdf,4/9/2012,Daytona Beach,Florida,United States,29.248888,-81.136108,0,0,Non-Fatal,non-fatal,False
83382,ERA12CA278,https://data.ntsb.gov/carol-repgen/api/Aviation/ReportMain/GenerateNewestReport/83382/pdf,4/12/2012,West Palm Beach,Florida,United States,26.851667,-80.226112,0,0,Non-Fatal,non-fatal,False
83387,ERA12CA281,https://data.ntsb.gov/carol-repgen/api/Aviation/ReportMain/GenerateNewestReport/83387/pdf,4/13/2012,Plantation Key,Florida,United States,25.005277,-80.52639,0,0,Non-Fatal,non-fatal,False
83449,ERA12LA296,https://data.ntsb.gov/carol-repgen/api/Aviation/ReportMain/GenerateNewestReport/83449/pdf,4/3/2012,New Smyrna Beach,Florida,United States,29.055555,-80.94889,0,0,Non-Fatal,non-fatal,False
83497,ERA12LA306,https://data.ntsb.gov/carol-repgen/api/Aviation/ReportMain/GenerateNewestReport/83497/pdf,4/27/2012,Fowler's Bluff,Florida,United States,29.388334,-83.021667,0,0,Non-Fatal,non-fatal,False
83498,ERA12LA307,https://data.ntsb.gov/carol-repgen/api/Aviation/ReportMain/GenerateNewestReport/83498/pdf,4/28/2012,Port Canaveral,Florida,United States,28.338054,-80.684448,0,0,Non-Fatal,non-fatal,False
83514,ERA12LA312,https://data.ntsb.gov/carol-repgen/api/Aviation/ReportMain/GenerateNewestReport/83514/pdf,4/30/2012,Milton,Florida,United States,30.70861,-87.201385,0,0,Non-Fatal,non-fatal,False
83533,ERA12LA314,https://data.ntsb.gov/carol-repgen/api/Aviation/ReportMain/GenerateNewestReport/83533/pdf,4/28/2012,Lake Wales,Florida,United States,27.893888,-81.620277,0,0,Non-Fatal,non-fatal,False
83588,ERA12FA326,https://data.ntsb.gov/carol-repgen/api/Aviation/ReportMain/GenerateNewestReport/83588/pdf,5/9/2012,DeFuniak Springs,Florida,United States,30.731111,-86.15361,1,0,Fatal,fatal,True
83601,ERA12CA328,https://data.ntsb.gov/carol-repgen/api/Aviation/ReportMain/GenerateNewestReport/83601/pdf,4/16/2012,Clermont,Florida,United States,28.550556,-81.769165,0,1,Non-Fatal,non-fatal,False
83608,ERA12CA330,https://data.ntsb.gov/carol-repgen/api/Aviation/ReportMain/GenerateNewestReport/83608/pdf,5/11/2012,Immokalee,Florida,United States,26.43361,-81.40139,0,0,Non-Fatal,non-fatal,False
83621,ERA12CA334,https://data.ntsb.gov/carol-repgen/api/Aviation/ReportMain/GenerateNewestReport/83621/pdf,5/11/2012,Weirsdale,Florida,United States,28.961944,-81.891387,0,0,Non-Fatal,non-fatal,False
83672,ERA12LA340,https://data.ntsb.gov/carol-repgen/api/Aviation/ReportMain/GenerateNewestReport/83672/pdf,5/5/2012,Williston,Florida,United States,29.353332,-82.469718,0,0,Non-Fatal,non-fatal,False
83705,ERA12FA345,https://data.ntsb.gov/carol-repgen/api/Aviation/ReportMain/GenerateNewestReport/83705/pdf,5/21/2012,Port Richey,Florida,United States,28.283889,-82.736389,1,0,Fatal,fatal,True
83707,ERA12LA346,https://data.ntsb.gov/carol-repgen/api/Aviation/ReportMain/GenerateNewestReport/83707/pdf,5/19/2012,Destin,Florida,United States,30.399906,-86.490814,0,0,Non-Fatal,non-fatal,False
83709,ERA12CA348,https://data.ntsb.gov/carol-repgen/api/Aviation/ReportMain/GenerateNewestReport/83709/pdf,5/19/2012,Pembroke Pines,Florida,United States,26.001111,-80.240554,0,0,Non-Fatal,non-fatal,False
83718,ERA12CA351,https://data.ntsb.gov/carol-repgen/api/Aviation/ReportMain/GenerateNewestReport/83718/pdf,5/5/2012,Umatilla,Florida,United States,28.924165,-81.651947,0,0,Non-Fatal,non-fatal,False
83729,ERA12LA355,https://data.ntsb.gov/carol-repgen/api/Aviation/ReportMain/GenerateNewestReport/83729/pdf,5/22/2012,Melbourne,Florida,United States,28.1025,-80.644996,0,0,Non-Fatal,non-fatal,False
83734,ERA12LA356,https://data.ntsb.gov/carol-repgen/api/Aviation/ReportMain/GenerateNewestReport/83734/pdf,5/23/2012,Hallandale,Florida,United States,25.988611,-80.131111,0,0,Non-Fatal,non-fatal,False
83743,ERA12CA361,https://data.ntsb.gov/carol-repgen/api/Aviation/ReportMain/GenerateNewestReport/83743/pdf,5/24/2012,Sanford,Florida,United States,28.721111,-81.220558,0,0,Non-Fatal,non-fatal,False
83765,ERA12LA366,https://data.ntsb.gov/carol-repgen/api/Aviation/ReportMain/GenerateNewestReport/83765/pdf,5/25/2012,Longboat Key,Florida,United States,27.386667,-82.638053,0,0,Non-Fatal,non-fatal,False
83790,ERA12CA370,https://data.ntsb.gov/carol-repgen/api/Aviation/ReportMain/GenerateNewestReport/83790/pdf,5/25/2012,Titusville,Florida,United States,28.620277,-80.834442,0,0,Non-Fatal,non-fatal,False
83811,ERA12CA375,https://data.ntsb.gov/carol-repgen/api/Aviation/ReportMain/GenerateNewestReport/83811/pdf,5/31/2012,Titusville,Florida,United States,28.441667,-80.859169,0,0,Non-Fatal,non-fatal,False
83847,ERA12LA379,https://data.ntsb.gov/carol-repgen/api/Aviation/ReportMain/GenerateNewestReport/83847/pdf,6/4/2012,Indiantown,Florida,United States,27.031389,-80.35083,0,0,Non-Fatal,non-fatal,False
83886,ERA12FA385,https://data.ntsb.gov/carol-repgen/api/Aviation/ReportMain/GenerateNewestReport/83886/pdf,6/7/2012,Lake Wales,Florida,United States,27.823055,-81.477218,6,0,Fatal,fatal,True
83903,ERA12FA387,https://data.ntsb.gov/carol-repgen/api/Aviation/ReportMain/GenerateNewestReport/83903/pdf,6/9/2012,Plant City,Florida,United States,28.135555,-82.141113,1,0,Fatal,fatal,True
84030,ERA12LA405,https://data.ntsb.gov/carol-repgen/api/Aviation/ReportMain/GenerateNewestReport/84030/pdf,6/16/2012,Miami,Florida,United States,25.6525,-80.525001,0,0,Non-Fatal,non-fatal,False
84044,ERA12CA407,https://data.ntsb.gov/carol-repgen/api/Aviation/ReportMain/GenerateNewestReport/84044/pdf,6/19/2012,Lake Wales,Florida,United States,27.889444,-81.618888,0,0,Non-Fatal,non-fatal,False
84105,ERA12LA417,https://data.ntsb.gov/carol-repgen/api/Aviation/ReportMain/GenerateNewestReport/84105/pdf,6/27/2012,Glenwood,Florida,United States,,,0,0,Non-Fatal,non-fatal,False
84111,ERA12CA419,https://data.ntsb.gov/carol-repgen/api/Aviation/ReportMain/GenerateNewestReport/84111/pdf,6/26/2012,West Palm Beach,Florida,United States,26.845832,-80.222221,0,0,Non-Fatal,non-fatal,False
84191,ERA12LA429,https://data.ntsb.gov/carol-repgen/api/Aviation/ReportMain/GenerateNewestReport/84191/pdf,7/4/2012,Tallahassee,Florida,United States,30.558055,-84.228889,0,0,Non-Fatal,non-fatal,False
84274,ERA12LA440,https://data.ntsb.gov/carol-repgen/api/Aviation/ReportMain/GenerateNewestReport/84274/pdf,7/11/2012,Panama City,Florida,United States,30.101388,-85.473892,0,1,Non-Fatal,non-fatal,False
84286,ERA12LA442,https://data.ntsb.gov/carol-repgen/api/Aviation/ReportMain/GenerateNewestReport/84286/pdf,7/11/2012,Pensacola,Florida,United States,30.393054,-87.349441,0,1,Non-Fatal,non-fatal,False
84321,ERA12LA452,https://data.ntsb.gov/carol-repgen/api/Aviation/ReportMain/GenerateNewestReport/84321/pdf,7/14/2012,Ocklawaha,Florida,United States,29.123611,-81.886947,0,0,Non-Fatal,non-fatal,False
84382,ERA12CA466,https://data.ntsb.gov/carol-repgen/api/Aviation/ReportMain/GenerateNewestReport/84382/pdf,7/18/2012,St. Augustine,Florida,United States,29.959167,-81.339721,0,0,Non-Fatal,non-fatal,False
84434,ERA12LA477,https://data.ntsb.gov/carol-repgen/api/Aviation/ReportMain/GenerateNewestReport/84434/pdf,7/24/2012,St. Petersburg,Florida,United States,27.813333,-82.681388,0,0,Non-Fatal,non-fatal,False
84530,ERA12CA490,https://data.ntsb.gov/carol-repgen/api/Aviation/ReportMain/GenerateNewestReport/84530/pdf,8/1/2012,Winter Haven,Florida,United States,28.057777,-81.751945,0,0,Non-Fatal,non-fatal,False
84532,ERA12FA491,https://data.ntsb.gov/carol-repgen/api/Aviation/ReportMain/GenerateNewestReport/84532/pdf,8/1/2012,St. Petersburg,Florida,United States,27.758611,-82.623886,1,1,Fatal,fatal,True
84542,ERA12LA494,https://data.ntsb.gov/carol-repgen/api/Aviation/ReportMain/GenerateNewestReport/84542/pdf,8/1/2012,Titusville,Florida,United States,28.514722,-80.799163,0,0,Non-Fatal,non-fatal,False
84756,ERA12CA521,https://data.ntsb.gov/carol-repgen/api/Aviation/ReportMain/GenerateNewestReport/84756/pdf,8/21/2012,Deland,Florida,United States,29.069723,-81.280555,0,0,Non-Fatal,non-fatal,False
84760,ERA12LA522,https://data.ntsb.gov/carol-repgen/api/Aviation/ReportMain/GenerateNewestReport/84760/pdf,8/22/2012,Hernando Beach,Florida,United States,28.426389,-82.693054,0,0,Non-Fatal,non-fatal,False
84778,ERA12LA524,https://data.ntsb.gov/carol-repgen/api/Aviation/ReportMain/GenerateNewestReport/84778/pdf,8/23/2012,Riverview,Florida,United States,27.878334,-82.346664,0,0,Non-Fatal,non-fatal,False
84786,ERA12LA525,https://data.ntsb.gov/carol-repgen/api/Aviation/ReportMain/GenerateNewestReport/84786/pdf,8/24/2012,Ormond Beach,Florida,United States,29.302778,-81.10778,0,0,Non-Fatal,non-fatal,False
84797,ERA12CA529,https://data.ntsb.gov/carol-repgen/api/Aviation/ReportMain/GenerateNewestReport/84797/pdf,8/23/2012,Winter Haven,Florida,United States,28.062778,-81.753051,0,0,Non-Fatal,non-fatal,False
84867,ERA12LA537,https://data.ntsb.gov/carol-repgen/api/Aviation/ReportMain/GenerateNewestReport/84867/pdf,8/30/2012,Ocala,Florida,United States,29.207221,-82.29,2,0,Fatal,fatal,True
85021,ERA12CA560,https://data.ntsb.gov/carol-repgen/api/Aviation/ReportMain/GenerateNewestReport/85021/pdf,9/3/2012,Sebring,Florida,United States,27.456388,-81.342224,0,0,Non-Fatal,non-fatal,False
85047,ERA12CA564,https://data.ntsb.gov/carol-repgen/api/Aviation/ReportMain/GenerateNewestReport/85047/pdf,9/16/2012,Okeechobee,Florida,United States,27.259445,-80.85028,0,0,Non-Fatal,non-fatal,False
85110,ERA12LA571,https://data.ntsb.gov/carol-repgen/api/Aviation/ReportMain/GenerateNewestReport/85110/pdf,9/21/2012,Perry,Florida,United States,29.809722,-83.545555,0,0,Non-Fatal,non-fatal,False
85115,ERA12FA572,https://data.ntsb.gov/carol-repgen/api/Aviation/ReportMain/GenerateNewestReport/85115/pdf,9/22/2012,Land O'Lakes,Florida,United States,28.25361,-82.522224,1,0,Fatal,fatal,True
85235,ERA12LA586,https://data.ntsb.gov/carol-repgen/api/Aviation/ReportMain/GenerateNewestReport/85235/pdf,9/20/2012,Titusville,Florida,United States,28.620277,-80.834442,0,0,Non-Fatal,non-fatal,False
85275,ERA13LA013,https://data.ntsb.gov/carol-repgen/api/Aviation/ReportMain/GenerateNewestReport/85275/pdf,10/6/2012,Minneola,Florida,United States,28.629444,-81.802223,0,1,Non-Fatal,non-fatal,False
85300,ERA13CA016,https://data.ntsb.gov/carol-repgen/api/Aviation/ReportMain/GenerateNewestReport/85300/pdf,10/8/2012,Cedar Key,Florida,United States,29.134166,-83.050277,0,0,Non-Fatal,non-fatal,False
85322,ERA13LA020,https://data.ntsb.gov/carol-repgen/api/Aviation/ReportMain/GenerateNewestReport/85322/pdf,10/14/2012,Winter Haven,Florida,United States,28.057777,-81.751945,2,0,Fatal,fatal,True
85465,ERA13LA043,https://data.ntsb.gov/carol-repgen/api/Aviation/ReportMain/GenerateNewestReport/85465/pdf,10/11/2012,Palm Coast,Florida,United States,29.466943,-81.203613,0,0,Non-Fatal,non-fatal,False
85482,ERA13CA044,https://data.ntsb.gov/carol-repgen/api/Aviation/ReportMain/GenerateNewestReport/85482/pdf,10/20/2012,Miami,Florida,United States,25.641944,-80.426391,0,0,Non-Fatal,non-fatal,False
85524,ERA13LA048,https://data.ntsb.gov/carol-repgen/api/Aviation/ReportMain/GenerateNewestReport/85524/pdf,10/21/2012,Pahokee,Florida,United States,26.784444,-80.689445,0,0,Non-Fatal,non-fatal,False
85537,ERA13LA049,https://data.ntsb.gov/carol-repgen/api/Aviation/ReportMain/GenerateNewestReport/85537/pdf,11/5/2012,Fort Lauderdale,Florida,United States,26.193611,-80.166664,0,0,Non-Fatal,non-fatal,False
85705,ERA13LA069,https://data.ntsb.gov/carol-repgen/api/Aviation/ReportMain/GenerateNewestReport/85705/pdf,11/28/2012,Merritt Island,Florida,United States,28.338888,-80.685279,0,1,Non-Fatal,non-fatal,False
85711,ERA13FA070,https://data.ntsb.gov/carol-repgen/api/Aviation/ReportMain/GenerateNewestReport/85711/pdf,11/30/2012,Apollo Beach,Florida,United States,27.780555,-82.431388,1,0,Fatal,fatal,True
85719,ERA13FA071,https://data.ntsb.gov/carol-repgen/api/Aviation/ReportMain/GenerateNewestReport/85719/pdf,12/1/2012,Pahokee,Florida,United States,26.771944,-80.668891,1,0,Fatal,fatal,True
85722,ERA13CA073,https://data.ntsb.gov/carol-repgen/api/Aviation/ReportMain/GenerateNewestReport/85722/pdf,12/1/2012,Fort Lauderdale,Florida,United States,26.191944,-80.171112,0,0,Non-Fatal,non-fatal,False
85763,ERA13FA082,https://data.ntsb.gov/carol-repgen/api/Aviation/ReportMain/GenerateNewestReport/85763/pdf,12/8/2012,Lake Worth,Florida,United States,26.601388,-80.075553,1,0,Fatal,fatal,True
85850,ERA13LA094,https://data.ntsb.gov/carol-repgen/api/Aviation/ReportMain/GenerateNewestReport/85850/pdf,12/19/2012,Sarasota,Florida,United States,27.309722,-82.585281,0,0,Non-Fatal,non-fatal,False
85876,ERA13FA096,https://data.ntsb.gov/carol-repgen/api/Aviation/ReportMain/GenerateNewestReport/85876/pdf,12/24/2012,Leesburg,Florida,United States,28.863889,-81.812225,1,1,Fatal,fatal,True
85903,ERA13LA099,https://data.ntsb.gov/carol-repgen/api/Aviation/ReportMain/GenerateNewestReport/85903/pdf,12/23/2012,Boca Raton,Florida,United States,26.373888,-80.104721,0,0,Non-Fatal,non-fatal,False
85946,ERA13LA104,https://data.ntsb.gov/carol-repgen/api/Aviation/ReportMain/GenerateNewestReport/85946/pdf,1/2/2013,Tampa,Florida,United States,27.915555,-82.449447,0,0,Non-Fatal,non-fatal,False
85964,ERA13FA105,https://data.ntsb.gov/carol-repgen/api/Aviation/ReportMain/GenerateNewestReport/85964/pdf,1/4/2013,Palm Coast,Florida,United States,29.458889,-81.185554,3,0,Fatal,fatal,True
86007,ERA13FA109,https://data.ntsb.gov/carol-repgen/api/Aviation/ReportMain/GenerateNewestReport/86007/pdf,1/12/2013,Sarasota,Florida,United States,27.38611,-82.561943,2,0,Fatal,fatal,True
86015,ERA13LA112,https://data.ntsb.gov/carol-repgen/api/Aviation/ReportMain/GenerateNewestReport/86015/pdf,1/11/2013,Brandon,Florida,United States,27.937778,-82.267776,0,0,Non-Fatal,non-fatal,False
86088,ERA13LA118,https://data.ntsb.gov/carol-repgen/api/Aviation/ReportMain/GenerateNewestReport/86088/pdf,1/26/2013,Okeechobee,Florida,United States,27.376111,-80.791664,0,0,Non-Fatal,non-fatal,False
86089,ERA13LA119,https://data.ntsb.gov/carol-repgen/api/Aviation/ReportMain/GenerateNewestReport/86089/pdf,1/27/2013,Palmetto,Florida,United States,27.648332,-82.509719,0,1,Non-Fatal,non-fatal,False
86091,ERA13CA120,https://data.ntsb.gov/carol-repgen/api/Aviation/ReportMain/GenerateNewestReport/86091/pdf,1/26/2013,Lake City,Florida,United States,30.152221,-82.659721,0,0,Non-Fatal,non-fatal,False
86159,ERA13LA127,https://data.ntsb.gov/carol-repgen/api/Aviation/ReportMain/GenerateNewestReport/86159/pdf,2/6/2013,Merritt Island,Florida,United States,28.341388,-80.685279,0,0,Non-Fatal,non-fatal,False
86173,ERA13CA130,https://data.ntsb.gov/carol-repgen/api/Aviation/ReportMain/GenerateNewestReport/86173/pdf,2/9/2013,Miami,Florida,United States,25.756944,-80.556388,0,0,Non-Fatal,non-fatal,False
86215,ERA13FA131,https://data.ntsb.gov/carol-repgen/api/Aviation/ReportMain/GenerateNewestReport/86215/pdf,2/13/2013,New Smyrna Beach,Florida,United States,29.046112,-80.956947,1,0,Fatal,fatal,True
86226,ERA13FA133,https://data.ntsb.gov/carol-repgen/api/Aviation/ReportMain/GenerateNewestReport/86226/pdf,2/14/2013,Yeehaw Junction,Florida,United States,27.616945,-80.714996,3,0,Fatal,fatal,True
86241,ERA13CA137,https://data.ntsb.gov/carol-repgen/api/Aviation/ReportMain/GenerateNewestReport/86241/pdf,2/18/2013,Okeechobee,Florida,United States,27.188333,-80.634162,0,0,Non-Fatal,non-fatal,False
86291,ERA13LA143,https://data.ntsb.gov/carol-repgen/api/Aviation/ReportMain/GenerateNewestReport/86291/pdf,2/24/2013,Homestead,Florida,United States,25.413055,-80.308609,0,0,Non-Fatal,non-fatal,False
86292,ERA13FA144,https://data.ntsb.gov/carol-repgen/api/Aviation/ReportMain/GenerateNewestReport/86292/pdf,2/24/2013,Lutz,Florida,United States,28.258611,-82.402496,1,0,Fatal,fatal,True
86306,ERA13CA146,https://data.ntsb.gov/carol-repgen/api/Aviation/ReportMain/GenerateNewestReport/86306/pdf,2/18/2013,Valparaiso,Florida,United States,30.483055,-86.526107,0,0,Non-Fatal,non-fatal,False
86389,ERA13LA159,https://data.ntsb.gov/carol-repgen/api/Aviation/ReportMain/GenerateNewestReport/86389/pdf,3/9/2013,Punta Gorda,Florida,United States,26.919721,-81.990554,0,0,Non-Fatal,non-fatal,False
86409,ERA13CA164,https://data.ntsb.gov/carol-repgen/api/Aviation/ReportMain/GenerateNewestReport/86409/pdf,3/13/2013,Groveland,Florida,United States,28.405834,-81.837776,0,0,Non-Fatal,non-fatal,False
86432,ERA13FA168,https://data.ntsb.gov/carol-repgen/api/Aviation/ReportMain/GenerateNewestReport/86432/pdf,3/15/2013,Fort Lauderdale,Florida,United States,26.191667,-80.156112,3,0,Fatal,fatal,True
86433,ERA13LA169,https://data.ntsb.gov/carol-repgen/api/Aviation/ReportMain/GenerateNewestReport/86433/pdf,3/16/2013,Homestead,Florida,United States,25.484167,-80.533889,0,2,Non-Fatal,non-fatal,False
86437,ERA13LA171,https://data.ntsb.gov/carol-repgen/api/Aviation/ReportMain/GenerateNewestReport/86437/pdf,3/16/2013,Immokalee,Florida,United States,26.408889,-81.536941,0,1,Non-Fatal,non-fatal,False
86450,ERA13LA174,https://data.ntsb.gov/carol-repgen/api/Aviation/ReportMain/GenerateNewestReport/86450/pdf,3/18/2013,Panama City,Florida,United States,30.341388,-85.831947,0,0,Non-Fatal,non-fatal,False
86465,ERA13LA175,https://data.ntsb.gov/carol-repgen/api/Aviation/ReportMain/GenerateNewestReport/86465/pdf,3/16/2013,Leesburg,Florida,United States,28.822778,-81.808609,0,0,Non-Fatal,non-fatal,False
86474,ERA13CA177,https://data.ntsb.gov/carol-repgen/api/Aviation/ReportMain/GenerateNewestReport/86474/pdf,3/17/2013,Eustis,Florida,United States,28.843334,-81.629997,0,0,Non-Fatal,non-fatal,False
86485,ERA13LA179,https://data.ntsb.gov/carol-repgen/api/Aviation/ReportMain/GenerateNewestReport/86485/pdf,3/21/2013,Perry,Florida,United States,30.055,-83.651664,0,0,Non-Fatal,non-fatal,False
86487,ERA13LA180,https://data.ntsb.gov/carol-repgen/api/Aviation/ReportMain/GenerateNewestReport/86487/pdf,3/19/2013,Titusville,Florida,United States,28.506111,-80.783889,0,0,Non-Fatal,non-fatal,False
86495,ERA13CA181,https://data.ntsb.gov/carol-repgen/api/Aviation/ReportMain/GenerateNewestReport/86495/pdf,3/24/2013,Tistusville,Florida,United States,28.620277,-80.834442,0,0,Non-Fatal,non-fatal,False
86581,ERA13FA186,https://data.ntsb.gov/carol-repgen/api/Aviation/ReportMain/GenerateNewestReport/86581/pdf,4/3/2013,Miami,Florida,United States,25.642221,-80.388053,2,0,Fatal,fatal,True
86585,ERA13LA187,https://data.ntsb.gov/carol-repgen/api/Aviation/ReportMain/GenerateNewestReport/86585/pdf,4/4/2013,Miami,Florida,United States,25.608612,-80.538612,0,0,Non-Fatal,non-fatal,False
86589,ERA13CA189,https://data.ntsb.gov/carol-repgen/api/Aviation/ReportMain/GenerateNewestReport/86589/pdf,3/30/2013,Immokalee,Florida,United States,26.433889,-81.40139,0,0,Non-Fatal,non-fatal,False
86633,ERA13LA198,https://data.ntsb.gov/carol-repgen/api/Aviation/ReportMain/GenerateNewestReport/86633/pdf,4/11/2013,Polk City,Florida,United States,28.168888,-81.817779,0,0,Non-Fatal,non-fatal,False
86635,ERA13LA199,https://data.ntsb.gov/carol-repgen/api/Aviation/ReportMain/GenerateNewestReport/86635/pdf,4/11/2013,Polk City,Florida,United States,28.166666,-81.483886,0,0,Non-Fatal,non-fatal,False
86644,ERA13FA201,https://data.ntsb.gov/carol-repgen/api/Aviation/ReportMain/GenerateNewestReport/86644/pdf,4/14/2013,St. Lucie,Florida,United States,27.238056,-80.47528,1,0,Fatal,fatal,True
86652,ERA13LA204,https://data.ntsb.gov/carol-repgen/api/Aviation/ReportMain/GenerateNewestReport/86652/pdf,4/12/2013,Avon Park,Florida,United States,27.642499,-81.407218,0,0,Non-Fatal,non-fatal,False
86669,ERA13CA207,https://data.ntsb.gov/carol-repgen/api/Aviation/ReportMain/GenerateNewestReport/86669/pdf,4/16/2013,Palatka,Florida,United States,29.681943,-81.646385,0,0,Non-Fatal,non-fatal,False
86746,ERA13FA217,https://data.ntsb.gov/carol-repgen/api/Aviation/ReportMain/GenerateNewestReport/86746/pdf,4/27/2013,Dade City,Florida,United States,28.360397,-82.190292,0,0,Non-Fatal,non-fatal,False
86750,ERA13FA219,https://data.ntsb.gov/carol-repgen/api/Aviation/ReportMain/GenerateNewestReport/86750/pdf,4/29/2013,Valkaria,Florida,United States,27.951665,-80.551391,1,0,Fatal,fatal,True
86754,ERA13LA220,https://data.ntsb.gov/carol-repgen/api/Aviation/ReportMain/GenerateNewestReport/86754/pdf,4/26/2013,Daytona Beach,Florida,United States,29.080278,-81.046386,0,0,Non-Fatal,non-fatal,False
86778,ERA13CA223,https://data.ntsb.gov/carol-repgen/api/Aviation/ReportMain/GenerateNewestReport/86778/pdf,3/30/2013,Daytona Beach,Florida,United States,29.074722,-81.041114,0,0,Non-Fatal,non-fatal,False
86862,DCA13CA088,https://data.ntsb.gov/carol-repgen/api/Aviation/ReportMain/GenerateNewestReport/86862/pdf,5/10/2013,Cocoa Beach,Florida,United States,28.4675,-80.566665,0,0,Non-Fatal,non-fatal,False
86870,ERA13LA239,https://data.ntsb.gov/carol-repgen/api/Aviation/ReportMain/GenerateNewestReport/86870/pdf,5/9/2013,Clewiston,Florida,United States,26.735,-81.050834,0,0,Non-Fatal,non-fatal,False
86872,ERA13CA240,https://data.ntsb.gov/carol-repgen/api/Aviation/ReportMain/GenerateNewestReport/86872/pdf,5/11/2013,Loxahatchee,Florida,United States,26.80611,-80.443054,0,0,Non-Fatal,non-fatal,False
86890,ERA13LA242,https://data.ntsb.gov/carol-repgen/api/Aviation/ReportMain/GenerateNewestReport/86890/pdf,5/8/2013,South Bay,Florida,United States,26.443889,-80.871109,0,0,Non-Fatal,non-fatal,False
86948,ERA13LA248,https://data.ntsb.gov/carol-repgen/api/Aviation/ReportMain/GenerateNewestReport/86948/pdf,5/18/2013,Geneva,Florida,United States,28.732778,-81.078613,0,1,Non-Fatal,non-fatal,False
86998,ERA13LA254,https://data.ntsb.gov/carol-repgen/api/Aviation/ReportMain/GenerateNewestReport/86998/pdf,5/26/2013,Naples,Florida,United States,26.017778,-81.686668,0,1,Non-Fatal,non-fatal,False
87126,ERA13FA275,https://data.ntsb.gov/carol-repgen/api/Aviation/ReportMain/GenerateNewestReport/87126/pdf,6/8/2013,Boynton Beach,Florida,United States,26.51111,-80.404167,1,0,Fatal,fatal,True
87139,ERA13CA277,https://data.ntsb.gov/carol-repgen/api/Aviation/ReportMain/GenerateNewestReport/87139/pdf,5/25/2013,West Palm Beach,Florida,United States,26.840833,-80.219444,0,0,Non-Fatal,non-fatal,False
87150,ERA13CA278,https://data.ntsb.gov/carol-repgen/api/Aviation/ReportMain/GenerateNewestReport/87150/pdf,6/3/2013,West Palm Beach,Florida,United States,26.646389,-80.294166,0,0,Non-Fatal,non-fatal,False
87172,ERA13CA280,https://data.ntsb.gov/carol-repgen/api/Aviation/ReportMain/GenerateNewestReport/87172/pdf,5/31/2013,Hollywood,Florida,United States,26.001943,-80.401107,0,0,Non-Fatal,non-fatal,False
87237,ERA13LA291,https://data.ntsb.gov/carol-repgen/api/Aviation/ReportMain/GenerateNewestReport/87237/pdf,6/19/2013,Clearwater,Florida,United States,27.901388,-82.667778,0,0,Non-Fatal,non-fatal,False
87258,ERA13LA297,https://data.ntsb.gov/carol-repgen/api/Aviation/ReportMain/GenerateNewestReport/87258/pdf,6/21/2013,Pompano Beach,Florida,United States,26.268054,-80.116943,0,0,Non-Fatal,non-fatal,False
87331,ERA13CA307,https://data.ntsb.gov/carol-repgen/api/Aviation/ReportMain/GenerateNewestReport/87331/pdf,6/28/2013,Okeechobee,Florida,United States,27.268054,-80.841941,0,0,Non-Fatal,non-fatal,False
87576,ERA13CA335,https://data.ntsb.gov/carol-repgen/api/Aviation/ReportMain/GenerateNewestReport/87576/pdf,7/22/2013,New Smyrna Beach,Florida,United States,29.053333,-80.942779,0,0,Non-Fatal,non-fatal,False
87788,ERA13LA363,https://data.ntsb.gov/carol-repgen/api/Aviation/ReportMain/GenerateNewestReport/87788/pdf,8/4/2013,Tallahassee,Florida,United States,30.396944,-84.35083,0,0,Non-Fatal,non-fatal,False
87859,ERA13LA374,https://data.ntsb.gov/carol-repgen/api/Aviation/ReportMain/GenerateNewestReport/87859/pdf,8/24/2013,Marco Island,Florida,United States,25.995,-81.6725,0,0,Non-Fatal,non-fatal,False
87876,ERA13LA381,https://data.ntsb.gov/carol-repgen/api/Aviation/ReportMain/GenerateNewestReport/87876/pdf,8/26/2013,Miami,Florida,United States,25.647499,-80.433334,0,0,Non-Fatal,non-fatal,False
87961,ERA13CA395,https://data.ntsb.gov/carol-repgen/api/Aviation/ReportMain/GenerateNewestReport/87961/pdf,8/29/2013,Fort Lauderdale,Florida,United States,26.197221,-80.171669,0,0,Non-Fatal,non-fatal,False
87982,ERA13LA398,https://data.ntsb.gov/carol-repgen/api/Aviation/ReportMain/GenerateNewestReport/87982/pdf,9/5/2013,Fort Myers,Florida,United States,26.586389,-81.863052,0,0,Non-Fatal,non-fatal,False
87983,ERA13CA399,https://data.ntsb.gov/carol-repgen/api/Aviation/ReportMain/GenerateNewestReport/87983/pdf,8/31/2013,Lakeland,Florida,United States,39.039688,-77.479164,0,0,Non-Fatal,non-fatal,False
88105,ERA13CA426,https://data.ntsb.gov/carol-repgen/api/Aviation/ReportMain/GenerateNewestReport/88105/pdf,9/22/2013,Pahokee,Florida,United States,26.784999,-80.693336,0,2,Non-Fatal,non-fatal,False
88108,ERA13LA428,https://data.ntsb.gov/carol-repgen/api/Aviation/ReportMain/GenerateNewestReport/88108/pdf,9/23/2013,Wellington,Florida,United States,26.647222,-80.331947,0,0,Non-Fatal,non-fatal,False
88150,ERA13FA432,https://data.ntsb.gov/carol-repgen/api/Aviation/ReportMain/GenerateNewestReport/88150/pdf,9/27/2013,Pahokee,Florida,United States,26.068611,-80.686943,1,0,Fatal,fatal,True
88210,ERA14CA001,https://data.ntsb.gov/carol-repgen/api/Aviation/ReportMain/GenerateNewestReport/88210/pdf,10/14/2013,Christmas,Florida,United States,28.530376,-81.019599,0,0,Non-Fatal,non-fatal,False
88241,ERA14LA004,https://data.ntsb.gov/carol-repgen/api/Aviation/ReportMain/GenerateNewestReport/88241/pdf,10/19/2013,Zephyrhills,Florida,United States,28.228055,-82.15583,0,0,Non-Fatal,non-fatal,False
88243,ERA14LA005,https://data.ntsb.gov/carol-repgen/api/Aviation/ReportMain/GenerateNewestReport/88243/pdf,10/19/2013,Punta Gorda,Florida,United States,26.918888,-81.990837,0,0,Non-Fatal,non-fatal,False
88248,ERA14LA008,https://data.ntsb.gov/carol-repgen/api/Aviation/ReportMain/GenerateNewestReport/88248/pdf,10/5/2013,Gainesville,Florida,United States,29.646389,-82.354164,0,0,Non-Fatal,non-fatal,False
88255,ERA14LA011,https://data.ntsb.gov/carol-repgen/api/Aviation/ReportMain/GenerateNewestReport/88255/pdf,10/19/2013,Tampa,Florida,United States,28.017778,-82.341667,1,0,Fatal,fatal,True
88317,ERA14CA023,https://data.ntsb.gov/carol-repgen/api/Aviation/ReportMain/GenerateNewestReport/88317/pdf,10/27/2013,Wauchula,Florida,United States,27.514722,-81.880279,0,0,Non-Fatal,non-fatal,False
88318,ERA14LA024,https://data.ntsb.gov/carol-repgen/api/Aviation/ReportMain/GenerateNewestReport/88318/pdf,10/27/2013,Everglades City,Florida,United States,25.858333,-81.394721,0,2,Non-Fatal,non-fatal,False
88363,ERA14CA032,https://data.ntsb.gov/carol-repgen/api/Aviation/ReportMain/GenerateNewestReport/88363/pdf,10/26/2013,Palm Coast,Florida,United States,29.4675,-81.20639,0,0,Non-Fatal,non-fatal,False
88376,ERA14LA034,https://data.ntsb.gov/carol-repgen/api/Aviation/ReportMain/GenerateNewestReport/88376/pdf,11/1/2013,De Leon Springs,Florida,United States,29.110576,-81.350646,0,0,Non-Fatal,non-fatal,False
88381,ERA14LA035,https://data.ntsb.gov/carol-repgen/api/Aviation/ReportMain/GenerateNewestReport/88381/pdf,10/3/2013,Eustis,Florida,United States,28.839445,-81.629997,0,1,Non-Fatal,non-fatal,False
88415,ERA14LA042,https://data.ntsb.gov/carol-repgen/api/Aviation/ReportMain/GenerateNewestReport/88415/pdf,11/11/2013,Homestead,Florida,United States,25.444999,-80.87889,0,0,Non-Fatal,non-fatal,False
88452,ERA14CA046,https://data.ntsb.gov/carol-repgen/api/Aviation/ReportMain/GenerateNewestReport/88452/pdf,11/11/2013,Clewiston,Florida,United States,26.735277,-81.051109,0,0,Non-Fatal,non-fatal,False
88508,ERA14CA061,https://data.ntsb.gov/carol-repgen/api/Aviation/ReportMain/GenerateNewestReport/88508/pdf,12/3/2013,Crescent City,Florida,United States,29.438611,-81.576385,0,0,Non-Fatal,non-fatal,False
88523,ERA14FA066,https://data.ntsb.gov/carol-repgen/api/Aviation/ReportMain/GenerateNewestReport/88523/pdf,12/6/2013,Sebring,Florida,United States,27.463333,-81.366668,1,0,Fatal,fatal,True
88526,ERA14FA068,https://data.ntsb.gov/carol-repgen/api/Aviation/ReportMain/GenerateNewestReport/88526/pdf,12/8/2013,Jacksonville,Florida,United States,30.319723,-81.514167,3,0,Fatal,fatal,True
88565,ERA14FA074,https://data.ntsb.gov/carol-repgen/api/Aviation/ReportMain/GenerateNewestReport/88565/pdf,12/18/2013,Panama City,Florida,United States,30.101943,-85.462219,1,0,Fatal,fatal,True
88589,ERA14CA078,https://data.ntsb.gov/carol-repgen/api/Aviation/ReportMain/GenerateNewestReport/88589/pdf,12/24/2013,Miami,Florida,United States,25.907499,-80.278335,0,0,Non-Fatal,non-fatal,False
88644,ERA14CA088,https://data.ntsb.gov/carol-repgen/api/Aviation/ReportMain/GenerateNewestReport/88644/pdf,9/15/2013,Clermont,Florida,United States,28.405834,-81.837776,0,0,Non-Fatal,non-fatal,False
88706,ERA14LA101,https://data.ntsb.gov/carol-repgen/api/Aviation/ReportMain/GenerateNewestReport/88706/pdf,1/21/2014,Titusville,Florida,United States,28.532499,-80.901664,0,0,Non-Fatal,non-fatal,False
88709,ERA14CA102,https://data.ntsb.gov/carol-repgen/api/Aviation/ReportMain/GenerateNewestReport/88709/pdf,1/23/2014,West Palm Beach,Florida,United States,26.845832,-80.222221,0,0,Non-Fatal,non-fatal,False
88710,ERA14LA103,https://data.ntsb.gov/carol-repgen/api/Aviation/ReportMain/GenerateNewestReport/88710/pdf,1/18/2014,Zephyrhills,Florida,United States,28.228055,-82.15583,0,0,Non-Fatal,non-fatal,False
88724,ERA14CA106,https://data.ntsb.gov/carol-repgen/api/Aviation/ReportMain/GenerateNewestReport/88724/pdf,11/16/2013,St. Augustine,Florida,United States,29.959167,-81.339721,0,0,Non-Fatal,non-fatal,False
88736,ERA14LA107,https://data.ntsb.gov/carol-repgen/api/Aviation/ReportMain/GenerateNewestReport/88736/pdf,1/28/2014,West Palm Beach,Florida,United States,26.683055,-80.095558,0,0,Non-Fatal,non-fatal,False
88743,ERA14CA109,https://data.ntsb.gov/carol-repgen/api/Aviation/ReportMain/GenerateNewestReport/88743/pdf,1/27/2014,Immokalee,Florida,United States,26.433889,-81.40139,0,0,Non-Fatal,non-fatal,False
88769,ERA14TA113,https://data.ntsb.gov/carol-repgen/api/Aviation/ReportMain/GenerateNewestReport/88769/pdf,2/3/2014,Naples,Florida,United States,26.152221,-81.777221,0,0,Non-Fatal,non-fatal,False
88777,ERA14FA115,https://data.ntsb.gov/carol-repgen/api/Aviation/ReportMain/GenerateNewestReport/88777/pdf,2/8/2014,Panacea,Florida,United States,29.989444,-84.391113,2,1,Fatal,fatal,True
88784,ERA14LA117,https://data.ntsb.gov/carol-repgen/api/Aviation/ReportMain/GenerateNewestReport/88784/pdf,2/7/2014,Stuart,Florida,United States,27.168056,-80.142501,1,0,Fatal,fatal,True
88801,ERA14CA121,https://data.ntsb.gov/carol-repgen/api/Aviation/ReportMain/GenerateNewestReport/88801/pdf,2/3/2014,Fort Pierce,Florida,United States,27.50089,-80.360939,0,0,Non-Fatal,non-fatal,False
88804,ERA14FA123,https://data.ntsb.gov/carol-repgen/api/Aviation/ReportMain/GenerateNewestReport/88804/pdf,2/17/2014,Wellington,Florida,United States,26.646667,-80.294998,1,0,Fatal,fatal,True
88836,ERA14LA130,https://data.ntsb.gov/carol-repgen/api/Aviation/ReportMain/GenerateNewestReport/88836/pdf,2/23/2014,Apopka,Florida,United States,28.74908,-81.489341,0,1,Non-Fatal,non-fatal,False
88855,ERA14CA136,https://data.ntsb.gov/carol-repgen/api/Aviation/ReportMain/GenerateNewestReport/88855/pdf,2/24/2014,Lake Wales,Florida,United States,27.81611,-81.579719,0,0,Non-Fatal,non-fatal,False
88883,ERA14CA143,https://data.ntsb.gov/carol-repgen/api/Aviation/ReportMain/GenerateNewestReport/88883/pdf,2/10/2014,Orlando,Florida,United States,28.379751,-81.479164,0,0,Non-Fatal,non-fatal,False
88888,ERA14LA146,https://data.ntsb.gov/carol-repgen/api/Aviation/ReportMain/GenerateNewestReport/88888/pdf,3/8/2014,Mulberry,Florida,United States,27.929445,-82.040275,0,0,Non-Fatal,non-fatal,False
88905,ERA14LA152,https://data.ntsb.gov/carol-repgen/api/Aviation/ReportMain/GenerateNewestReport/88905/pdf,3/9/2014,Live Oak,Florida,United States,30.35,-82.999725,0,2,Non-Fatal,non-fatal,False
88922,ERA14CA155,https://data.ntsb.gov/carol-repgen/api/Aviation/ReportMain/GenerateNewestReport/88922/pdf,3/14/2014,Brooksville,Florida,United States,28.473611,-82.455558,0,0,Non-Fatal,non-fatal,False
88923,ERA14LA156,https://data.ntsb.gov/carol-repgen/api/Aviation/ReportMain/GenerateNewestReport/88923/pdf,3/14/2014,Stuart,Florida,United States,27.060365,-80.27005,0,0,Non-Fatal,non-fatal,False
88932,ERA14CA157,https://data.ntsb.gov/carol-repgen/api/Aviation/ReportMain/GenerateNewestReport/88932/pdf,3/17/2014,Marathon,Florida,United States,24.72611,-81.051391,0,0,Non-Fatal,non-fatal,False
88942,ERA14LA159,https://data.ntsb.gov/carol-repgen/api/Aviation/ReportMain/GenerateNewestReport/88942/pdf,3/16/2014,Zephyrhills,Florida,United States,28.260896,-82.129493,0,0,Non-Fatal,non-fatal,False
88950,ERA14LA161,https://data.ntsb.gov/carol-repgen/api/Aviation/ReportMain/GenerateNewestReport/88950/pdf,3/21/2014,Palatka,Florida,United States,29.658056,-81.673057,1,1,Fatal,fatal,True
88951,ERA14FA162,https://data.ntsb.gov/carol-repgen/api/Aviation/ReportMain/GenerateNewestReport/88951/pdf,3/22/2014,Safety Harbor,Florida,United States,28.000278,-82.708885,2,1,Fatal,fatal,True
88960,ERA14CA166,https://data.ntsb.gov/carol-repgen/api/Aviation/ReportMain/GenerateNewestReport/88960/pdf,3/23/2014,Saint Petersburg,Florida,United States,27.764165,-82.625,0,0,Non-Fatal,non-fatal,False
88961,ERA14LA167,https://data.ntsb.gov/carol-repgen/api/Aviation/ReportMain/GenerateNewestReport/88961/pdf,3/23/2014,St. Petersburg,Florida,United States,27.760278,-82.629165,0,0,Non-Fatal,non-fatal,False
88985,ERA14CA175,https://data.ntsb.gov/carol-repgen/api/Aviation/ReportMain/GenerateNewestReport/88985/pdf,3/29/2014,Marathon,Florida,United States,24.756666,-81.013336,0,0,Non-Fatal,non-fatal,False
89009,ERA14LA180,https://data.ntsb.gov/carol-repgen/api/Aviation/ReportMain/GenerateNewestReport/89009/pdf,4/4/2014,Ocala,Florida,United States,29.177499,-82.228614,0,1,Non-Fatal,non-fatal,False
89012,ERA14FA182,https://data.ntsb.gov/carol-repgen/api/Aviation/ReportMain/GenerateNewestReport/89012/pdf,4/6/2014,Summerfield,Florida,United States,29.017499,-82.113891,2,0,Fatal,fatal,True
89016,ERA14LA183,https://data.ntsb.gov/carol-repgen/api/Aviation/ReportMain/GenerateNewestReport/89016/pdf,4/2/2014,Venus,Florida,United States,26.971389,-81.503608,0,0,Non-Fatal,non-fatal,False
89020,ERA14CA184,https://data.ntsb.gov/carol-repgen/api/Aviation/ReportMain/GenerateNewestReport/89020/pdf,4/7/2014,Daytona Beach,Florida,United States,29.18,-81.058052,0,0,Non-Fatal,non-fatal,False
89033,ERA14CA189,https://data.ntsb.gov/carol-repgen/api/Aviation/ReportMain/GenerateNewestReport/89033/pdf,4/8/2014,Frostproof,Florida,United States,27.657499,-81.462501,0,0,Non-Fatal,non-fatal,False
89037,ERA14FA464,https://data.ntsb.gov/carol-repgen/api/Aviation/ReportMain/GenerateNewestReport/89037/pdf,4/5/2014,Dunnellon,Florida,United States,29.030834,-82.387779,1,0,Fatal,fatal,True
89040,ERA14CA190,https://data.ntsb.gov/carol-repgen/api/Aviation/ReportMain/GenerateNewestReport/89040/pdf,4/10/2014,Tavares,Florida,United States,28.802221,-81.750274,0,0,Non-Fatal,non-fatal,False
89042,ERA14CA191,https://data.ntsb.gov/carol-repgen/api/Aviation/ReportMain/GenerateNewestReport/89042/pdf,4/5/2014,La Belle,Florida,United States,26.740554,-81.428337,0,0,Non-Fatal,non-fatal,False
89056,ERA14CA197,https://data.ntsb.gov/carol-repgen/api/Aviation/ReportMain/GenerateNewestReport/89056/pdf,4/11/2014,Leesburg,Florida,United States,28.8225,-81.80722,0,0,Non-Fatal,non-fatal,False
89080,ERA14CA201,https://data.ntsb.gov/carol-repgen/api/Aviation/ReportMain/GenerateNewestReport/89080/pdf,4/12/2014,Blountstown,Florida,United States,30.486944,-85.113609,0,0,Non-Fatal,non-fatal,False
89091,ERA14CA205,https://data.ntsb.gov/carol-repgen/api/Aviation/ReportMain/GenerateNewestReport/89091/pdf,4/21/2014,Sanford,Florida,United States,28.776945,-81.235,0,0,Non-Fatal,non-fatal,False
89138,ERA14CA213,https://data.ntsb.gov/carol-repgen/api/Aviation/ReportMain/GenerateNewestReport/89138/pdf,4/29/2014,Fort Pierce,Florida,United States,27.497499,-80.372779,0,0,Non-Fatal,non-fatal,False
89186,ERA14CA229,https://data.ntsb.gov/carol-repgen/api/Aviation/ReportMain/GenerateNewestReport/89186/pdf,4/27/2014,Punta Gorda,Florida,United States,26.722221,-82.07389,0,0,Non-Fatal,non-fatal,False
89187,ERA14CA230,https://data.ntsb.gov/carol-repgen/api/Aviation/ReportMain/GenerateNewestReport/89187/pdf,5/9/2014,Deland,Florida,United States,29.066944,-81.283607,0,0,Non-Fatal,non-fatal,False
89231,ERA14LA244,https://data.ntsb.gov/carol-repgen/api/Aviation/ReportMain/GenerateNewestReport/89231/pdf,5/8/2014,Brooksville,Florida,United States,28.473611,-82.455558,0,0,Non-Fatal,non-fatal,False
89266,ERA14FA255,https://data.ntsb.gov/carol-repgen/api/Aviation/ReportMain/GenerateNewestReport/89266/pdf,5/25/2014,Fountain,Florida,United States,30.522222,-85.38861,3,1,Fatal,fatal,True
89311,ERA14LA268,https://data.ntsb.gov/carol-repgen/api/Aviation/ReportMain/GenerateNewestReport/89311/pdf,4/4/2014,Melbourne,Florida,United States,28.1025,-80.644996,0,0,Non-Fatal,non-fatal,False
89358,ERA14LA279,https://data.ntsb.gov/carol-repgen/api/Aviation/ReportMain/GenerateNewestReport/89358/pdf,6/2/2014,Sebastian,Florida,United States,27.813333,-80.495552,0,0,Non-Fatal,non-fatal,False
89401,ERA14FA282,https://data.ntsb.gov/carol-repgen/api/Aviation/ReportMain/GenerateNewestReport/89401/pdf,6/9/2014,Merritt Island,Florida,United States,28.368055,-80.6875,2,0,Fatal,fatal,True
89402,ERA14FA283,https://data.ntsb.gov/carol-repgen/api/Aviation/ReportMain/GenerateNewestReport/89402/pdf,6/9/2014,Daytona Beach,Florida,United States,29.174444,-81.054725,2,0,Fatal,fatal,True
89404,ERA14CA284,https://data.ntsb.gov/carol-repgen/api/Aviation/ReportMain/GenerateNewestReport/89404/pdf,6/6/2014,Defuniak Springs,Florida,United States,30.725276,-86.152221,0,0,Non-Fatal,non-fatal,False
89412,ERA14CA286,https://data.ntsb.gov/carol-repgen/api/Aviation/ReportMain/GenerateNewestReport/89412/pdf,6/6/2014,Cross City,Florida,United States,29.634445,-83.059997,0,0,Non-Fatal,non-fatal,False
89466,ERA14CA298,https://data.ntsb.gov/carol-repgen/api/Aviation/ReportMain/GenerateNewestReport/89466/pdf,6/14/2014,Milton,Florida,United States,30.633333,-86.983329,0,0,Non-Fatal,non-fatal,False
89506,ERA14LA305,https://data.ntsb.gov/carol-repgen/api/Aviation/ReportMain/GenerateNewestReport/89506/pdf,6/22/2014,Tampa,Florida,United States,28.013889,-82.345001,1,0,Fatal,fatal,True
89507,ERA14CA306,https://data.ntsb.gov/carol-repgen/api/Aviation/ReportMain/GenerateNewestReport/89507/pdf,6/21/2014,Zephryhills,Florida,United States,28.223611,-82.15361,0,0,Non-Fatal,non-fatal,False
89534,ERA14LA309,https://data.ntsb.gov/carol-repgen/api/Aviation/ReportMain/GenerateNewestReport/89534/pdf,6/20/2014,Rockledge,Florida,United States,28.323055,-80.69889,0,0,Non-Fatal,non-fatal,False
89563,ERA14CA317,https://data.ntsb.gov/carol-repgen/api/Aviation/ReportMain/GenerateNewestReport/89563/pdf,6/29/2014,Orlando,Florida,United States,28.545555,-81.333053,0,0,Non-Fatal,non-fatal,False
89624,ERA14CA331,https://data.ntsb.gov/carol-repgen/api/Aviation/ReportMain/GenerateNewestReport/89624/pdf,6/23/2014,Miami,Florida,United States,25.647777,-80.432777,0,0,Non-Fatal,non-fatal,False
89640,ERA14LA336,https://data.ntsb.gov/carol-repgen/api/Aviation/ReportMain/GenerateNewestReport/89640/pdf,7/10/2014,Titusville,Florida,United States,26.609167,-80.824722,0,0,Non-Fatal,non-fatal,False
89674,ERA14FA343,https://data.ntsb.gov/carol-repgen/api/Aviation/ReportMain/GenerateNewestReport/89674/pdf,7/16/2014,North Captiva Island,Florida,United States,26.60361,-82.227218,1,0,Fatal,fatal,True
89687,ERA14LA344,https://data.ntsb.gov/carol-repgen/api/Aviation/ReportMain/GenerateNewestReport/89687/pdf,7/10/2014,Melbourne,Florida,United States,28.205278,-80.886108,0,0,Non-Fatal,non-fatal,False
89703,ERA14LA346,https://data.ntsb.gov/carol-repgen/api/Aviation/ReportMain/GenerateNewestReport/89703/pdf,7/20/2014,Elliott Key,Florida,United States,25.438055,-80.199996,1,0,Fatal,fatal,True
89716,ERA14CA348,https://data.ntsb.gov/carol-repgen/api/Aviation/ReportMain/GenerateNewestReport/89716/pdf,7/21/2014,Titusville,Florida,United States,28.551111,-80.900833,0,0,Non-Fatal,non-fatal,False
89732,ERA14LA355,https://data.ntsb.gov/carol-repgen/api/Aviation/ReportMain/GenerateNewestReport/89732/pdf,7/15/2014,Pompano Beach,Florida,United States,26.244722,-80.106109,0,0,Non-Fatal,non-fatal,False
89746,ERA14LA362,https://data.ntsb.gov/carol-repgen/api/Aviation/ReportMain/GenerateNewestReport/89746/pdf,7/27/2014,Venice,Florida,United States,27.067222,-82.448608,2,0,Fatal,fatal,True
89750,ERA14LA363,https://data.ntsb.gov/carol-repgen/api/Aviation/ReportMain/GenerateNewestReport/89750/pdf,7/28/2014,Yulee,Florida,United States,30.605556,-81.566108,1,0,Fatal,fatal,True
89771,ERA14LA368,https://data.ntsb.gov/carol-repgen/api/Aviation/ReportMain/GenerateNewestReport/89771/pdf,7/25/2014,Bonifay,Florida,United States,30.845277,-85.590553,0,0,Non-Fatal,non-fatal,False
89787,ERA14LA374,https://data.ntsb.gov/carol-repgen/api/Aviation/ReportMain/GenerateNewestReport/89787/pdf,8/1/2014,Apalachicola,Florida,United States,29.7275,-85.027221,0,0,Non-Fatal,non-fatal,False
89807,ERA14CA375,https://data.ntsb.gov/carol-repgen/api/Aviation/ReportMain/GenerateNewestReport/89807/pdf,8/6/2014,Valkaria,Florida,United States,27.960832,-80.558334,0,0,Non-Fatal,non-fatal,False
89859,ERA14LA382,https://data.ntsb.gov/carol-repgen/api/Aviation/ReportMain/GenerateNewestReport/89859/pdf,8/10/2014,West Palm Beach,Florida,United States,26.59111,-80.096389,0,0,Non-Fatal,non-fatal,False
89865,ERA14LA383,https://data.ntsb.gov/carol-repgen/api/Aviation/ReportMain/GenerateNewestReport/89865/pdf,8/12/2014,Sarasota,Florida,United States,27.232221,-82.524169,0,0,Non-Fatal,non-fatal,False
89915,ERA14CA397,https://data.ntsb.gov/carol-repgen/api/Aviation/ReportMain/GenerateNewestReport/89915/pdf,8/19/2014,Milton,Florida,United States,30.635833,-86.98944,0,0,Non-Fatal,non-fatal,False
89935,ERA14FA403,https://data.ntsb.gov/carol-repgen/api/Aviation/ReportMain/GenerateNewestReport/89935/pdf,8/23/2014,Laurel Hill,Florida,United States,30.925832,-86.434997,1,0,Fatal,fatal,True
89953,ERA14CA406,https://data.ntsb.gov/carol-repgen/api/Aviation/ReportMain/GenerateNewestReport/89953/pdf,8/11/2014,Gainesville,Florida,United States,29.687221,-82.269721,0,0,Non-Fatal,non-fatal,False
89991,ERA14FA416,https://data.ntsb.gov/carol-repgen/api/Aviation/ReportMain/GenerateNewestReport/89991/pdf,8/31/2014,St. Petersburg,Florida,United States,27.764999,-82.626945,1,0,Fatal,fatal,True
89998,ERA14CA420,https://data.ntsb.gov/carol-repgen/api/Aviation/ReportMain/GenerateNewestReport/89998/pdf,8/23/2014,Vero Beach,Florida,United States,27.651666,-80.416389,0,0,Non-Fatal,non-fatal,False
90065,ERA14LA434,https://data.ntsb.gov/carol-repgen/api/Aviation/ReportMain/GenerateNewestReport/90065/pdf,9/10/2014,Spruce Creek,Florida,United States,29.099195,-81.07064,0,0,Non-Fatal,non-fatal,False
90079,ERA14LA440,https://data.ntsb.gov/carol-repgen/api/Aviation/ReportMain/GenerateNewestReport/90079/pdf,9/15/2014,St. Petersburg,Florida,United States,27.777221,-82.626663,0,2,Non-Fatal,non-fatal,False
90121,ERA14LA448,https://data.ntsb.gov/carol-repgen/api/Aviation/ReportMain/GenerateNewestReport/90121/pdf,9/19/2014,Leesburg,Florida,United States,28.822778,-81.808334,0,0,Non-Fatal,non-fatal,False
90133,ERA14LA451,https://data.ntsb.gov/carol-repgen/api/Aviation/ReportMain/GenerateNewestReport/90133/pdf,9/21/2014,Homosassa,Florida,United States,28.783332,-82.616668,0,0,Non-Fatal,non-fatal,False
90136,ERA14CA452,https://data.ntsb.gov/carol-repgen/api/Aviation/ReportMain/GenerateNewestReport/90136/pdf,9/14/2014,Naples,Florida,United States,26.1525,-81.775558,0,0,Non-Fatal,non-fatal,False
90205,ERA15FA003,https://data.ntsb.gov/carol-repgen/api/Aviation/ReportMain/GenerateNewestReport/90205/pdf,10/3/2014,Palm Coast,Florida,United States,29.653888,-81.272499,1,0,Fatal,fatal,True
90222,ERA15CA010,https://data.ntsb.gov/carol-repgen/api/Aviation/ReportMain/GenerateNewestReport/90222/pdf,10/6/2014,Tampa,Florida,United States,27.884166,-82.418334,0,0,Non-Fatal,non-fatal,False
90243,ERA15LA014,https://data.ntsb.gov/carol-repgen/api/Aviation/ReportMain/GenerateNewestReport/90243/pdf,10/12/2014,Boca Raton,Florida,United States,26.409999,-80.14389,0,0,Non-Fatal,non-fatal,False
90271,ERA15CA020,https://data.ntsb.gov/carol-repgen/api/Aviation/ReportMain/GenerateNewestReport/90271/pdf,10/18/2014,Sebring,Florida,United States,27.456388,-81.342498,0,0,Non-Fatal,non-fatal,False
90272,ERA15CA021,https://data.ntsb.gov/carol-repgen/api/Aviation/ReportMain/GenerateNewestReport/90272/pdf,10/18/2014,Everglades City,Florida,United States,25.840555,-81.38639,0,0,Non-Fatal,non-fatal,False
90310,ERA15LA030,https://data.ntsb.gov/carol-repgen/api/Aviation/ReportMain/GenerateNewestReport/90310/pdf,10/23/2014,Naples,Florida,United States,26.153055,-81.775276,0,0,Non-Fatal,non-fatal,False
90311,ERA15CA031,https://data.ntsb.gov/carol-repgen/api/Aviation/ReportMain/GenerateNewestReport/90311/pdf,10/26/2014,Eustis,Florida,United States,28.839445,-81.630279,0,0,Non-Fatal,non-fatal,False
90326,ERA15CA033,https://data.ntsb.gov/carol-repgen/api/Aviation/ReportMain/GenerateNewestReport/90326/pdf,10/24/2014,Apopka,Florida,United States,28.749864,-81.489669,0,0,Non-Fatal,non-fatal,False
90342,ERA15CA038,https://data.ntsb.gov/carol-repgen/api/Aviation/ReportMain/GenerateNewestReport/90342/pdf,10/30/2014,Miami,Florida,United States,25.643054,-80.434448,0,0,Non-Fatal,non-fatal,False
90343,ERA15LA039,https://data.ntsb.gov/carol-repgen/api/Aviation/ReportMain/GenerateNewestReport/90343/pdf,10/29/2014,New Smyrna Beach,Florida,United States,29.103332,-80.942779,0,0,Non-Fatal,non-fatal,False
90352,ERA15CA042,https://data.ntsb.gov/carol-repgen/api/Aviation/ReportMain/GenerateNewestReport/90352/pdf,11/3/2014,Everglades City,Florida,United States,25.848888,-81.390274,0,0,Non-Fatal,non-fatal,False
90354,ERA15LA044,https://data.ntsb.gov/carol-repgen/api/Aviation/ReportMain/GenerateNewestReport/90354/pdf,10/21/2014,Dunnellon,Florida,United States,29.067222,-82.376663,0,1,Non-Fatal,non-fatal,False
90409,ERA15CA056,https://data.ntsb.gov/carol-repgen/api/Aviation/ReportMain/GenerateNewestReport/90409/pdf,11/12/2014,Sarasota,Florida,United States,27.395555,-82.554443,0,0,Non-Fatal,non-fatal,False
90415,ERA15CA057,https://data.ntsb.gov/carol-repgen/api/Aviation/ReportMain/GenerateNewestReport/90415/pdf,11/20/2014,St. Petersburg,Florida,United States,27.764999,-82.626945,0,0,Non-Fatal,non-fatal,False
90424,ERA15LA058,https://data.ntsb.gov/carol-repgen/api/Aviation/ReportMain/GenerateNewestReport/90424/pdf,11/24/2014,TAMPA,Florida,United States,27.915555,-82.449447,0,0,Non-Fatal,non-fatal,False
90429,ERA15LA060,https://data.ntsb.gov/carol-repgen/api/Aviation/ReportMain/GenerateNewestReport/90429/pdf,10/25/2014,West Palm Beach,Florida,United States,26.646667,-80.294998,0,0,Non-Fatal,non-fatal,False
90451,ERA15CA069,https://data.ntsb.gov/carol-repgen/api/Aviation/ReportMain/GenerateNewestReport/90451/pdf,12/2/2014,Wachula,Florida,United States,27.514999,-81.880554,0,0,Non-Fatal,non-fatal,False
90491,ERA15CA074,https://data.ntsb.gov/carol-repgen/api/Aviation/ReportMain/GenerateNewestReport/90491/pdf,12/4/2014,Vero Beach,Florida,United States,27.655555,-80.418052,0,0,Non-Fatal,non-fatal,False
90531,ERA15CA081,https://data.ntsb.gov/carol-repgen/api/Aviation/ReportMain/GenerateNewestReport/90531/pdf,12/21/2014,Miami Gardens,Florida,United States,25.959999,-80.23722,0,0,Non-Fatal,non-fatal,False
90540,ERA15FA085,https://data.ntsb.gov/carol-repgen/api/Aviation/ReportMain/GenerateNewestReport/90540/pdf,12/29/2014,Lake Worth,Florida,United States,26.6,-80.086669,1,1,Fatal,fatal,True
90550,ERA15LA087,https://data.ntsb.gov/carol-repgen/api/Aviation/ReportMain/GenerateNewestReport/90550/pdf,12/30/2014,Fort Pierce,Florida,United States,27.497222,-80.372497,0,0,Non-Fatal,non-fatal,False
90576,ERA15CA093,https://data.ntsb.gov/carol-repgen/api/Aviation/ReportMain/GenerateNewestReport/90576/pdf,1/1/2015,Apalachicola,Florida,United States,29.7275,-85.025833,0,0,Non-Fatal,non-fatal,False
90598,ERA15FA099,https://data.ntsb.gov/carol-repgen/api/Aviation/ReportMain/GenerateNewestReport/90598/pdf,1/13/2015,New Smyrna Beach,Florida,United States,29.039722,-80.895278,1,0,Fatal,fatal,True
90604,ERA15FA102,https://data.ntsb.gov/carol-repgen/api/Aviation/ReportMain/GenerateNewestReport/90604/pdf,1/16/2015,Sebring,Florida,United States,27.456388,-81.342498,2,0,Fatal,fatal,True
90632,ERA15FA109,https://data.ntsb.gov/carol-repgen/api/Aviation/ReportMain/GenerateNewestReport/90632/pdf,1/22/2015,Lakeland,Florida,United States,28.02111,-82.044441,2,0,Fatal,fatal,True
90646,ERA15LA114,https://data.ntsb.gov/carol-repgen/api/Aviation/ReportMain/GenerateNewestReport/90646/pdf,1/25/2015,Fernandina Beach,Florida,United States,30.6175,-81.474166,0,1,Non-Fatal,non-fatal,False
90667,ERA15LA115,https://data.ntsb.gov/carol-repgen/api/Aviation/ReportMain/GenerateNewestReport/90667/pdf,1/28/2015,West Palm Beach,Florida,United States,26.593055,-80.084999,0,0,Non-Fatal,non-fatal,False
90681,ERA15CA116,https://data.ntsb.gov/carol-repgen/api/Aviation/ReportMain/GenerateNewestReport/90681/pdf,1/12/2015,Deland,Florida,United States,29.066944,-81.283607,0,0,Non-Fatal,non-fatal,False
90685,ERA15CA118,https://data.ntsb.gov/carol-repgen/api/Aviation/ReportMain/GenerateNewestReport/90685/pdf,1/2/2015,Eustis,Florida,United States,28.843334,-81.629997,0,0,Non-Fatal,non-fatal,False
90695,ERA15CA122,https://data.ntsb.gov/carol-repgen/api/Aviation/ReportMain/GenerateNewestReport/90695/pdf,1/31/2015,Bushnell,Florida,United States,28.68361,-82.157501,0,0,Non-Fatal,non-fatal,False
90702,ERA15LA124,https://data.ntsb.gov/carol-repgen/api/Aviation/ReportMain/GenerateNewestReport/90702/pdf,2/9/2015,Sebastian,Florida,United States,27.815555,-80.469718,0,0,Non-Fatal,non-fatal,False
90723,ERA15LA130,https://data.ntsb.gov/carol-repgen/api/Aviation/ReportMain/GenerateNewestReport/90723/pdf,2/13/2015,Sebastian,Florida,United States,27.813333,-80.495552,0,1,Non-Fatal,non-fatal,False
90799,ERA15FA139,https://data.ntsb.gov/carol-repgen/api/Aviation/ReportMain/GenerateNewestReport/90799/pdf,3/2/2015,Sebring,Florida,United States,27.436666,-81.34111,1,0,Fatal,fatal,True
90800,ERA15LA140,https://data.ntsb.gov/carol-repgen/api/Aviation/ReportMain/GenerateNewestReport/90800/pdf,3/1/2015,Marco Island,Florida,United States,25.987777,-81.671112,0,1,Non-Fatal,non-fatal,False
90801,ERA15FA141,https://data.ntsb.gov/carol-repgen/api/Aviation/ReportMain/GenerateNewestReport/90801/pdf,3/2/2015,Boynton Beach,Florida,United States,26.520277,-80.222221,2,0,Fatal,fatal,True
90807,ERA15LA142,https://data.ntsb.gov/carol-repgen/api/Aviation/ReportMain/GenerateNewestReport/90807/pdf,2/27/2015,Jacksonville,Florida,United States,30.264165,-81.70417,0,0,Non-Fatal,non-fatal,False
90808,ERA15CA143,https://data.ntsb.gov/carol-repgen/api/Aviation/ReportMain/GenerateNewestReport/90808/pdf,3/1/2015,Clermont,Florida,United States,28.528333,-81.721107,0,0,Non-Fatal,non-fatal,False
90825,ERA15LA145,https://data.ntsb.gov/carol-repgen/api/Aviation/ReportMain/GenerateNewestReport/90825/pdf,3/3/2015,Venice,Florida,United States,27.059722,-82.347778,0,0,Non-Fatal,non-fatal,False
90844,ERA15LA149,https://data.ntsb.gov/carol-repgen/api/Aviation/ReportMain/GenerateNewestReport/90844/pdf,3/9/2015,Fort Myers,Florida,United States,26.586666,-81.863334,1,1,Fatal,fatal,True
90871,ERA15LA155,https://data.ntsb.gov/carol-repgen/api/Aviation/ReportMain/GenerateNewestReport/90871/pdf,3/14/2015,Indian Lake Estates,Florida,United States,27.816667,-81.382225,0,0,Non-Fatal,non-fatal,False
90877,GAA15CA008,https://data.ntsb.gov/carol-repgen/api/Aviation/ReportMain/GenerateNewestReport/90877/pdf,3/12/2015,Palmetto,Florida,United States,27.665277,-82.452774,0,0,Non-Fatal,non-fatal,False
90892,ERA15LA161,https://data.ntsb.gov/carol-repgen/api/Aviation/ReportMain/GenerateNewestReport/90892/pdf,3/18/2015,Fernandina Beach,Florida,United States,30.611944,-81.461112,0,1,Non-Fatal,non-fatal,False
90900,ERA15FA164,https://data.ntsb.gov/carol-repgen/api/Aviation/ReportMain/GenerateNewestReport/90900/pdf,3/22/2015,Orlando,Florida,United States,28.556943,-81.389167,3,0,Fatal,fatal,True
90901,ERA15LA165,https://data.ntsb.gov/carol-repgen/api/Aviation/ReportMain/GenerateNewestReport/90901/pdf,3/20/2015,Masscotte,Florida,United States,28.662776,-81.882499,0,0,Non-Fatal,non-fatal,False
90912,ERA15LA166,https://data.ntsb.gov/carol-repgen/api/Aviation/ReportMain/GenerateNewestReport/90912/pdf,3/23/2015,Inverness,Florida,United States,28.823055,-82.306114,0,0,Non-Fatal,non-fatal,False
90937,ERA15LA168,https://data.ntsb.gov/carol-repgen/api/Aviation/ReportMain/GenerateNewestReport/90937/pdf,3/24/2015,Live Oak,Florida,United States,30.264722,-82.935554,0,0,Non-Fatal,non-fatal,False
90970,ERA15FA175,https://data.ntsb.gov/carol-repgen/api/Aviation/ReportMain/GenerateNewestReport/90970/pdf,4/1/2015,Fort Pierce,Florida,United States,27.497222,-80.33889,1,0,Fatal,fatal,True
91012,ERA15FA181,https://data.ntsb.gov/carol-repgen/api/Aviation/ReportMain/GenerateNewestReport/91012/pdf,4/12/2015,Fort Lauderdale,Florida,United States,26.201665,-80.177497,4,0,Fatal,fatal,True
91025,GAA15CA041,https://data.ntsb.gov/carol-repgen/api/Aviation/ReportMain/GenerateNewestReport/91025/pdf,4/3/2015,Fort Myers,Florida,United States,26.585277,-81.85778,0,0,Non-Fatal,non-fatal,False
91046,ERA15LA189,https://data.ntsb.gov/carol-repgen/api/Aviation/ReportMain/GenerateNewestReport/91046/pdf,4/18/2015,Titusville,Florida,United States,28.514722,-80.799163,0,0,Non-Fatal,non-fatal,False
91053,ERA15FA191,https://data.ntsb.gov/carol-repgen/api/Aviation/ReportMain/GenerateNewestReport/91053/pdf,4/20/2015,Lakeland,Florida,United States,27.993055,-81.989166,0,1,Non-Fatal,non-fatal,False
91054,ERA15LA192,https://data.ntsb.gov/carol-repgen/api/Aviation/ReportMain/GenerateNewestReport/91054/pdf,4/19/2015,Fort Myers,Florida,United States,26.732778,-81.897224,0,0,Non-Fatal,non-fatal,False
91066,GAA15CA046,https://data.ntsb.gov/carol-repgen/api/Aviation/ReportMain/GenerateNewestReport/91066/pdf,4/19/2015,Naples,Florida,United States,26.1525,-81.775558,0,0,Non-Fatal,non-fatal,False
91069,ERA15CA196,https://data.ntsb.gov/carol-repgen/api/Aviation/ReportMain/GenerateNewestReport/91069/pdf,4/17/2015,Sebastian,Florida,United States,27.813333,-80.495552,0,0,Non-Fatal,non-fatal,False
91079,GAA15CA049,https://data.ntsb.gov/carol-repgen/api/Aviation/ReportMain/GenerateNewestReport/91079/pdf,4/24/2015,Clearwater,Florida,United States,27.961389,-82.727218,0,0,Non-Fatal,non-fatal,False
91099,ERA15LA202,https://data.ntsb.gov/carol-repgen/api/Aviation/ReportMain/GenerateNewestReport/91099/pdf,4/23/2015,Jacksonville,Florida,United States,30.336389,-81.514442,0,0,Non-Fatal,non-fatal,False
91150,GAA15CA064,https://data.ntsb.gov/carol-repgen/api/Aviation/ReportMain/GenerateNewestReport/91150/pdf,5/7/2015,Daytona Beach,Florida,United States,29.18,-81.058052,0,0,Non-Fatal,non-fatal,False
91195,ERA15LA214,https://data.ntsb.gov/carol-repgen/api/Aviation/ReportMain/GenerateNewestReport/91195/pdf,5/12/2015,Inverness,Florida,United States,28.803611,-82.318336,0,0,Non-Fatal,non-fatal,False
91254,ERA15LA224,https://data.ntsb.gov/carol-repgen/api/Aviation/ReportMain/GenerateNewestReport/91254/pdf,5/27/2015,Melbourne,Florida,United States,28.106945,-80.659721,0,0,Non-Fatal,non-fatal,False
91259,ERA15LA225,https://data.ntsb.gov/carol-repgen/api/Aviation/ReportMain/GenerateNewestReport/91259/pdf,5/23/2015,Miami,Florida,United States,25.643054,-80.433052,0,0,Non-Fatal,non-fatal,False
91282,ERA15LA230,https://data.ntsb.gov/carol-repgen/api/Aviation/ReportMain/GenerateNewestReport/91282/pdf,6/1/2015,Panama City Beach,Florida,United States,30.136388,-85.720275,0,1,Non-Fatal,non-fatal,False
91335,GAA15CA111,https://data.ntsb.gov/carol-repgen/api/Aviation/ReportMain/GenerateNewestReport/91335/pdf,6/5/2015,Clewiston,Florida,United States,26.735834,-81.05194,0,0,Non-Fatal,non-fatal,False
91421,ERA15LA248,https://data.ntsb.gov/carol-repgen/api/Aviation/ReportMain/GenerateNewestReport/91421/pdf,6/18/2015,St. Augustine,Florida,United States,29.959167,-81.339721,0,0,Non-Fatal,non-fatal,False
91427,ERA15LA249,https://data.ntsb.gov/carol-repgen/api/Aviation/ReportMain/GenerateNewestReport/91427/pdf,6/19/2015,Clearwater,Florida,United States,27.899444,-82.686668,0,0,Non-Fatal,non-fatal,False
91543,ERA15CA264,https://data.ntsb.gov/carol-repgen/api/Aviation/ReportMain/GenerateNewestReport/91543/pdf,7/10/2015,Palatka,Florida,United States,29.658611,-81.688331,0,0,Non-Fatal,non-fatal,False
91546,ERA15LA265,https://data.ntsb.gov/carol-repgen/api/Aviation/ReportMain/GenerateNewestReport/91546/pdf,7/11/2015,Mount Dora,Florida,United States,28.834999,-81.628608,0,0,Non-Fatal,non-fatal,False
91569,GAA15CA186,https://data.ntsb.gov/carol-repgen/api/Aviation/ReportMain/GenerateNewestReport/91569/pdf,7/4/2015,Arcadia,Florida,United States,27.195554,-81.837219,0,0,Non-Fatal,non-fatal,False
91606,ERA15FA277,https://data.ntsb.gov/carol-repgen/api/Aviation/ReportMain/GenerateNewestReport/91606/pdf,7/22/2015,Lake Wales,Florida,United States,27.892221,-81.611946,1,1,Fatal,fatal,True
91657,ERA15LA288,https://data.ntsb.gov/carol-repgen/api/Aviation/ReportMain/GenerateNewestReport/91657/pdf,7/22/2015,West Palm Beach,Florida,United States,26.685556,-80.092781,0,0,Non-Fatal,non-fatal,False
91658,ERA15LA289,https://data.ntsb.gov/carol-repgen/api/Aviation/ReportMain/GenerateNewestReport/91658/pdf,7/23/2015,Fort Lauderdale,Florida,United States,26.196111,-80.168052,0,0,Non-Fatal,non-fatal,False
91697,GAA15CA209,https://data.ntsb.gov/carol-repgen/api/Aviation/ReportMain/GenerateNewestReport/91697/pdf,7/30/2015,Tallahassee,Florida,United States,30.409444,-84.353057,0,0,Non-Fatal,non-fatal,False
91713,GAA15CA214,https://data.ntsb.gov/carol-repgen/api/Aviation/ReportMain/GenerateNewestReport/91713/pdf,8/3/2015,Miami,Florida,United States,25.647499,-80.433334,0,0,Non-Fatal,non-fatal,False
91732,ERA15FA299,https://data.ntsb.gov/carol-repgen/api/Aviation/ReportMain/GenerateNewestReport/91732/pdf,8/10/2015,Marathon,Florida,United States,24.729999,-81.076667,1,0,Fatal,fatal,True
91734,ERA15LA301,https://data.ntsb.gov/carol-repgen/api/Aviation/ReportMain/GenerateNewestReport/91734/pdf,8/9/2015,Kissimmee,Florida,United States,28.0,-81.0,0,1,Non-Fatal,non-fatal,False
91735,ERA15CA302,https://data.ntsb.gov/carol-repgen/api/Aviation/ReportMain/GenerateNewestReport/91735/pdf,8/9/2015,Titusville,Florida,United States,28.622499,-80.835281,0,0,Non-Fatal,non-fatal,False
91744,ERA15LA306,https://data.ntsb.gov/carol-repgen/api/Aviation/ReportMain/GenerateNewestReport/91744/pdf,8/10/2015,Brooksville,Florida,United States,28.473611,-82.455558,0,1,Non-Fatal,non-fatal,False
91749,GAA15CA220,https://data.ntsb.gov/carol-repgen/api/Aviation/ReportMain/GenerateNewestReport/91749/pdf,7/23/2015,Apopka,Florida,United States,28.707221,-81.581665,0,0,Non-Fatal,non-fatal,False
91763,ERA15FA308,https://data.ntsb.gov/carol-repgen/api/Aviation/ReportMain/GenerateNewestReport/91763/pdf,8/12/2015,Weirsdale,Florida,United States,28.969444,-81.89167,2,0,Fatal,fatal,True
91802,ERA15LA318,https://data.ntsb.gov/carol-repgen/api/Aviation/ReportMain/GenerateNewestReport/91802/pdf,8/17/2015,Chiefland,Florida,United States,29.436388,-82.945556,0,0,Non-Fatal,non-fatal,False
91867,ERA15FA325,https://data.ntsb.gov/carol-repgen/api/Aviation/ReportMain/GenerateNewestReport/91867/pdf,8/26/2015,Titusville,Florida,United States,28.524723,-80.761665,1,0,Fatal,fatal,True
91872,ERA15CA327,https://data.ntsb.gov/carol-repgen/api/Aviation/ReportMain/GenerateNewestReport/91872/pdf,8/22/2015,Riviera Beach,Florida,United States,26.804166,-80.033058,0,0,Non-Fatal,non-fatal,False
91875,GAA15CA240,https://data.ntsb.gov/carol-repgen/api/Aviation/ReportMain/GenerateNewestReport/91875/pdf,8/26/2015,DeFuniak Springs,Florida,United States,30.732778,-86.150833,0,0,Non-Fatal,non-fatal,False
91886,ERA15LA332,https://data.ntsb.gov/carol-repgen/api/Aviation/ReportMain/GenerateNewestReport/91886/pdf,8/30/2015,Fort Lauderdale,Florida,United States,26.197221,-80.170829,0,1,Non-Fatal,non-fatal,False
91922,ERA15LA337,https://data.ntsb.gov/carol-repgen/api/Aviation/ReportMain/GenerateNewestReport/91922/pdf,9/3/2015,New Smyrna Beach,Florida,United States,29.083889,-81.766944,0,1,Non-Fatal,non-fatal,False
91931,ERA15LA342,https://data.ntsb.gov/carol-repgen/api/Aviation/ReportMain/GenerateNewestReport/91931/pdf,9/5/2015,Miami,Florida,United States,25.646667,-80.560836,0,0,Non-Fatal,non-fatal,False
91955,GAA15CA254,https://data.ntsb.gov/carol-repgen/api/Aviation/ReportMain/GenerateNewestReport/91955/pdf,8/21/2015,LaBelle,Florida,United States,26.742776,-81.431114,0,0,Non-Fatal,non-fatal,False
91994,ERA15FA361,https://data.ntsb.gov/carol-repgen/api/Aviation/ReportMain/GenerateNewestReport/91994/pdf,9/18/2015,Spring Hill,Florida,United States,28.473888,-82.510002,1,0,Fatal,fatal,True
92025,GAA15CA269,https://data.ntsb.gov/carol-repgen/api/Aviation/ReportMain/GenerateNewestReport/92025/pdf,9/10/2015,Myakka City,Florida,United States,27.277778,-82.216392,0,0,Non-Fatal,non-fatal,False
92048,ERA15LA372,https://data.ntsb.gov/carol-repgen/api/Aviation/ReportMain/GenerateNewestReport/92048/pdf,8/31/2015,Miami,Florida,United States,25.647499,-80.433334,0,0,Non-Fatal,non-fatal,False
92051,ERA15LA373,https://data.ntsb.gov/carol-repgen/api/Aviation/ReportMain/GenerateNewestReport/92051/pdf,9/24/2015,Lake Wales,Florida,United States,27.893888,-81.620552,0,0,Non-Fatal,non-fatal,False
92058,ERA15LA376,https://data.ntsb.gov/carol-repgen/api/Aviation/ReportMain/GenerateNewestReport/92058/pdf,9/25/2015,Eustis,Florida,United States,28.834999,-81.581665,0,2,Non-Fatal,non-fatal,False
92059,ERA15FA378,https://data.ntsb.gov/carol-repgen/api/Aviation/ReportMain/GenerateNewestReport/92059/pdf,9/30/2015,St. Petersburg,Florida,United States,27.919721,-82.689163,1,0,Fatal,fatal,True
92080,GAA15CA280,https://data.ntsb.gov/carol-repgen/api/Aviation/ReportMain/GenerateNewestReport/92080/pdf,9/22/2015,West Palm Beach,Florida,United States,26.59111,-80.081947,0,0,Non-Fatal,non-fatal,False
92094,GAA15CA289,https://data.ntsb.gov/carol-repgen/api/Aviation/ReportMain/GenerateNewestReport/92094/pdf,9/23/2015,Merritt Island,Florida,United States,28.341667,-80.685554,0,0,Non-Fatal,non-fatal,False
92150,ERA16LA008,https://data.ntsb.gov/carol-repgen/api/Aviation/ReportMain/GenerateNewestReport/92150/pdf,10/10/2015,Seville,Florida,United States,29.343055,-81.451942,1,2,Fatal,fatal,True
92155,ERA16LA009,https://data.ntsb.gov/carol-repgen/api/Aviation/ReportMain/GenerateNewestReport/92155/pdf,10/11/2015,Miami Beach,Florida,United States,25.79,-79.925834,0,0,Non-Fatal,non-fatal,False
92169,ERA16FA012,https://data.ntsb.gov/carol-repgen/api/Aviation/ReportMain/GenerateNewestReport/92169/pdf,10/13/2015,Lake Worth,Florida,United States,26.616388,-80.095001,2,0,Fatal,fatal,True
92231,ERA16LA026,https://data.ntsb.gov/carol-repgen/api/Aviation/ReportMain/GenerateNewestReport/92231/pdf,10/26/2015,Weston,Florida,United States,26.058889,-80.434722,1,0,Fatal,fatal,True
92234,ERA16LA027,https://data.ntsb.gov/carol-repgen/api/Aviation/ReportMain/GenerateNewestReport/92234/pdf,10/26/2015,Key Biscayne,Florida,United States,25.7175,-80.159164,0,0,Non-Fatal,non-fatal,False
92297,ERA16FA033,https://data.ntsb.gov/carol-repgen/api/Aviation/ReportMain/GenerateNewestReport/92297/pdf,11/6/2015,Okeechobee,Florida,United States,27.2075,-80.842498,1,0,Fatal,fatal,True
92325,GAA16CA047,https://data.ntsb.gov/carol-repgen/api/Aviation/ReportMain/GenerateNewestReport/92325/pdf,11/9/2015,Miami,Florida,United States,25.653055,-80.431945,0,0,Non-Fatal,non-fatal,False
92339,GAA16CA053,https://data.ntsb.gov/carol-repgen/api/Aviation/ReportMain/GenerateNewestReport/92339/pdf,11/13/2015,Winter Haven,Florida,United States,28.062778,-81.751945,0,0,Non-Fatal,non-fatal,False
92347,ERA16FA043,https://data.ntsb.gov/carol-repgen/api/Aviation/ReportMain/GenerateNewestReport/92347/pdf,11/20/2015,Orlando,Florida,United States,28.52,-81.404441,2,0,Fatal,fatal,True
92382,ERA16LA053,https://data.ntsb.gov/carol-repgen/api/Aviation/ReportMain/GenerateNewestReport/92382/pdf,12/1/2015,Opa Locka,Florida,United States,25.897222,-80.089164,0,3,Non-Fatal,non-fatal,False
92384,ERA16LA054,https://data.ntsb.gov/carol-repgen/api/Aviation/ReportMain/GenerateNewestReport/92384/pdf,11/26/2015,Destin,Florida,United States,30.399999,-86.471389,0,0,Non-Fatal,non-fatal,False
92385,ERA16LA055,https://data.ntsb.gov/carol-repgen/api/Aviation/ReportMain/GenerateNewestReport/92385/pdf,12/1/2015,Venice,Florida,United States,27.1,-82.433334,0,1,Non-Fatal,non-fatal,False
92397,ERA16LA058,https://data.ntsb.gov/carol-repgen/api/Aviation/ReportMain/GenerateNewestReport/92397/pdf,10/17/2015,Sanford,Florida,United States,28.776945,-81.235,0,0,Non-Fatal,non-fatal,False
92422,GAA16CA073,https://data.ntsb.gov/carol-repgen/api/Aviation/ReportMain/GenerateNewestReport/92422/pdf,12/3/2015,Boca Raton,Florida,United States,26.37861,-80.107498,0,0,Non-Fatal,non-fatal,False
92426,GAA16CA075,https://data.ntsb.gov/carol-repgen/api/Aviation/ReportMain/GenerateNewestReport/92426/pdf,12/9/2015,West Palm Beach,Florida,United States,26.845832,-80.222503,0,0,Non-Fatal,non-fatal,False
92469,ERA16FA074,https://data.ntsb.gov/carol-repgen/api/Aviation/ReportMain/GenerateNewestReport/92469/pdf,12/17/2015,Greenville,Florida,United States,30.354166,-83.610832,2,0,Fatal,fatal,True
92481,GAA16LA087,https://data.ntsb.gov/carol-repgen/api/Aviation/ReportMain/GenerateNewestReport/92481/pdf,12/12/2015,Clearwater,Florida,United States,27.977222,-82.759162,0,0,Non-Fatal,non-fatal,False
92528,ERA16CA080,https://data.ntsb.gov/carol-repgen/api/Aviation/ReportMain/GenerateNewestReport/92528/pdf,1/4/2016,Clearwater,Florida,United States,27.908611,-82.686386,0,0,Non-Fatal,non-fatal,False
92532,GAA16CA096,https://data.ntsb.gov/carol-repgen/api/Aviation/ReportMain/GenerateNewestReport/92532/pdf,12/26/2015,Punta Gorda,Florida,United States,26.914722,-81.996391,0,0,Non-Fatal,non-fatal,False
92555,ERA16LA086,https://data.ntsb.gov/carol-repgen/api/Aviation/ReportMain/GenerateNewestReport/92555/pdf,1/9/2016,Minneola,Florida,United States,28.627777,-81.80278,0,1,Non-Fatal,non-fatal,False
92612,ERA16CA093,https://data.ntsb.gov/carol-repgen/api/Aviation/ReportMain/GenerateNewestReport/92612/pdf,1/18/2016,Venice,Florida,United States,27.071666,-82.440277,0,0,Non-Fatal,non-fatal,False
92661,GAA16CA114,https://data.ntsb.gov/carol-repgen/api/Aviation/ReportMain/GenerateNewestReport/92661/pdf,1/31/2016,Merritt Island,Florida,United States,28.341667,-80.686111,0,0,Non-Fatal,non-fatal,False
92682,ERA16CA102,https://data.ntsb.gov/carol-repgen/api/Aviation/ReportMain/GenerateNewestReport/92682/pdf,1/16/2016,Zephyrhills,Florida,United States,28.230556,-82.161109,0,0,Non-Fatal,non-fatal,False
92683,ERA16LA103,https://data.ntsb.gov/carol-repgen/api/Aviation/ReportMain/GenerateNewestReport/92683/pdf,2/2/2016,Miami,Florida,United States,25.900833,-80.121109,0,0,Non-Fatal,non-fatal,False
92688,GAA16CA119,https://data.ntsb.gov/carol-repgen/api/Aviation/ReportMain/GenerateNewestReport/92688/pdf,1/31/2016,Everglades,Florida,United States,25.849166,-81.389999,0,0,Non-Fatal,non-fatal,False
92710,ERA16LA106,https://data.ntsb.gov/carol-repgen/api/Aviation/ReportMain/GenerateNewestReport/92710/pdf,2/12/2016,Destin,Florida,United States,30.399999,-86.471389,2,0,Fatal,fatal,True
92753,GAA16LA135,https://data.ntsb.gov/carol-repgen/api/Aviation/ReportMain/GenerateNewestReport/92753/pdf,2/18/2016,Tavernier,Florida,United States,25.001667,-80.536941,0,0,Non-Fatal,non-fatal,False
92756,ERA16LA110,https://data.ntsb.gov/carol-repgen/api/Aviation/ReportMain/GenerateNewestReport/92756/pdf,2/23/2016,Palatka,Florida,United States,29.620555,-81.65583,0,0,Non-Fatal,non-fatal,False
92759,ERA15LA380,https://data.ntsb.gov/carol-repgen/api/Aviation/ReportMain/GenerateNewestReport/92759/pdf,9/27/2015,Sarasota,Florida,United States,27.395555,-82.554443,0,0,Non-Fatal,non-fatal,False
92764,ERA16LA111,https://data.ntsb.gov/carol-repgen/api/Aviation/ReportMain/GenerateNewestReport/92764/pdf,2/24/2016,Pembroke Pines,Florida,United States,26.007223,-80.23722,0,0,Non-Fatal,non-fatal,False
92772,ERA16LA113,https://data.ntsb.gov/carol-repgen/api/Aviation/ReportMain/GenerateNewestReport/92772/pdf,2/20/2016,Orlando,Florida,United States,28.443611,-81.282501,0,0,Non-Fatal,non-fatal,False
92775,ERA16LA114,https://data.ntsb.gov/carol-repgen/api/Aviation/ReportMain/GenerateNewestReport/92775/pdf,2/28/2016,Gainesville,Florida,United States,29.698055,-82.280281,0,0,Non-Fatal,non-fatal,False
92781,ERA16LA119,https://data.ntsb.gov/carol-repgen/api/Aviation/ReportMain/GenerateNewestReport/92781/pdf,2/21/2016,St. Augustine,Florida,United States,29.959167,-81.339721,0,0,Non-Fatal,non-fatal,False
92810,ERA16LA123,https://data.ntsb.gov/carol-repgen/api/Aviation/ReportMain/GenerateNewestReport/92810/pdf,3/5/2016,St. Petersburg,Florida,United States,27.723888,-82.665,0,0,Non-Fatal,non-fatal,False
92828,ERA16FA127,https://data.ntsb.gov/carol-repgen/api/Aviation/ReportMain/GenerateNewestReport/92828/pdf,3/12/2016,Clermont,Florida,United States,28.557222,-81.718887,2,0,Fatal,fatal,True
92846,ERA16LA130,https://data.ntsb.gov/carol-repgen/api/Aviation/ReportMain/GenerateNewestReport/92846/pdf,3/14/2016,Myakka,Florida,United States,27.348611,-82.178054,0,0,Non-Fatal,non-fatal,False
92856,ERA16FA133,https://data.ntsb.gov/carol-repgen/api/Aviation/ReportMain/GenerateNewestReport/92856/pdf,3/18/2016,Tampa,Florida,United States,27.919721,-82.447776,2,0,Fatal,fatal,True
92901,GAA16CA162,https://data.ntsb.gov/carol-repgen/api/Aviation/ReportMain/GenerateNewestReport/92901/pdf,3/26/2016,Homestead,Florida,United States,25.505832,-80.553054,0,0,Non-Fatal,non-fatal,False
92909,GAA16CA166,https://data.ntsb.gov/carol-repgen/api/Aviation/ReportMain/GenerateNewestReport/92909/pdf,3/25/2016,Lake Harbor,Florida,United States,26.692777,-80.809722,0,0,Non-Fatal,non-fatal,False
92978,ERA16FA150,https://data.ntsb.gov/carol-repgen/api/Aviation/ReportMain/GenerateNewestReport/92978/pdf,4/9/2016,Ocala,Florida,United States,29.173889,-82.224166,1,1,Fatal,fatal,True
92992,GAA16CA186,https://data.ntsb.gov/carol-repgen/api/Aviation/ReportMain/GenerateNewestReport/92992/pdf,4/4/2016,Punta Gorda,Florida,United States,26.912221,-81.993331,0,0,Non-Fatal,non-fatal,False
93012,ERA16LA156,https://data.ntsb.gov/carol-repgen/api/Aviation/ReportMain/GenerateNewestReport/93012/pdf,4/13/2016,Deland,Florida,United States,29.104166,-81.31472,0,0,Non-Fatal,non-fatal,False
93030,ERA16LA164,https://data.ntsb.gov/carol-repgen/api/Aviation/ReportMain/GenerateNewestReport/93030/pdf,4/18/2016,Okeechobee,Florida,United States,27.434999,-80.677223,0,0,Non-Fatal,non-fatal,False
93065,ERA16FA170,https://data.ntsb.gov/carol-repgen/api/Aviation/ReportMain/GenerateNewestReport/93065/pdf,4/25/2016,Pompano Beach,Florida,United States,26.238056,-80.091667,0,3,Non-Fatal,non-fatal,False
93144,GAA16CA229,https://data.ntsb.gov/carol-repgen/api/Aviation/ReportMain/GenerateNewestReport/93144/pdf,5/7/2016,Pace,Florida,United States,30.725,-87.201942,0,0,Non-Fatal,non-fatal,False
93178,ERA16FA186,https://data.ntsb.gov/carol-repgen/api/Aviation/ReportMain/GenerateNewestReport/93178/pdf,5/16/2016,Homestead,Florida,United States,25.498056,-80.558334,0,1,Non-Fatal,non-fatal,False
93180,GAA16CA234,https://data.ntsb.gov/carol-repgen/api/Aviation/ReportMain/GenerateNewestReport/93180/pdf,5/15/2016,Pahokee,Florida,United States,26.784166,-80.693336,0,0,Non-Fatal,non-fatal,False
93190,GAA16CA239,https://data.ntsb.gov/carol-repgen/api/Aviation/ReportMain/GenerateNewestReport/93190/pdf,4/23/2016,Defuniak Springs,Florida,United States,30.731111,-86.153892,0,0,Non-Fatal,non-fatal,False
93201,GAA16CA243,https://data.ntsb.gov/carol-repgen/api/Aviation/ReportMain/GenerateNewestReport/93201/pdf,5/13/2016,Crystal River,Florida,United States,28.867776,-82.570274,0,0,Non-Fatal,non-fatal,False
93211,ERA16LA190,https://data.ntsb.gov/carol-repgen/api/Aviation/ReportMain/GenerateNewestReport/93211/pdf,5/16/2016,Lake City,Florida,United States,30.181943,-82.576942,0,0,Non-Fatal,non-fatal,False
93236,ERA16LA193,https://data.ntsb.gov/carol-repgen/api/Aviation/ReportMain/GenerateNewestReport/93236/pdf,5/23/2016,Melrose,Florida,United States,29.718334,-81.980552,0,0,Non-Fatal,non-fatal,False
93375,ERA16LA213,https://data.ntsb.gov/carol-repgen/api/Aviation/ReportMain/GenerateNewestReport/93375/pdf,6/10/2016,Apopka,Florida,United States,28.712223,-81.584999,0,0,Non-Fatal,non-fatal,False
93426,ERA16LA225,https://data.ntsb.gov/carol-repgen/api/Aviation/ReportMain/GenerateNewestReport/93426/pdf,6/17/2016,Punta Gorda,Florida,United States,26.918888,-81.990837,0,0,Non-Fatal,non-fatal,False
93441,ERA16CA229,https://data.ntsb.gov/carol-repgen/api/Aviation/ReportMain/GenerateNewestReport/93441/pdf,6/23/2016,Crystal River,Florida,United States,28.866945,-82.567779,0,0,Non-Fatal,non-fatal,False
93456,ERA16LA230,https://data.ntsb.gov/carol-repgen/api/Aviation/ReportMain/GenerateNewestReport/93456/pdf,6/25/2016,Hollywood,Florida,United States,26.001111,-80.240837,0,0,Non-Fatal,non-fatal,False
93459,ERA16LA231,https://data.ntsb.gov/carol-repgen/api/Aviation/ReportMain/GenerateNewestReport/93459/pdf,6/26/2016,Hollywood,Florida,United States,26.001111,-80.240837,0,0,Non-Fatal,non-fatal,False
93516,GAA16LA352,https://data.ntsb.gov/carol-repgen/api/Aviation/ReportMain/GenerateNewestReport/93516/pdf,6/29/2016,Merritt Island,Florida,United States,28.341943,-80.687774,0,0,Non-Fatal,non-fatal,False
93519,ERA16FA238,https://data.ntsb.gov/carol-repgen/api/Aviation/ReportMain/GenerateNewestReport/93519/pdf,7/3/2016,Weston,Florida,United States,26.254444,-80.415557,1,0,Fatal,fatal,True
93541,GAA16CA360,https://data.ntsb.gov/carol-repgen/api/Aviation/ReportMain/GenerateNewestReport/93541/pdf,7/2/2016,Pembroke Pines,Florida,United States,25.998332,-80.241386,0,0,Non-Fatal,non-fatal,False
93587,ERA16LA250,https://data.ntsb.gov/carol-repgen/api/Aviation/ReportMain/GenerateNewestReport/93587/pdf,7/8/2016,Windermere,Florida,United States,28.5025,-81.52639,0,2,Non-Fatal,non-fatal,False
93588,ERA16LA251,https://data.ntsb.gov/carol-repgen/api/Aviation/ReportMain/GenerateNewestReport/93588/pdf,7/11/2016,Zellwood,Florida,United States,28.760278,-81.605834,0,1,Non-Fatal,non-fatal,False
93591,ERA16LA252,https://data.ntsb.gov/carol-repgen/api/Aviation/ReportMain/GenerateNewestReport/93591/pdf,7/11/2016,Bartow,Florida,United States,27.943332,-81.783332,0,0,Non-Fatal,non-fatal,False
93669,ERA16LA266,https://data.ntsb.gov/carol-repgen/api/Aviation/ReportMain/GenerateNewestReport/93669/pdf,7/22/2016,Winter Haven,Florida,United States,28.062221,-81.75389,1,1,Fatal,fatal,True
93671,ERA16LA268,https://data.ntsb.gov/carol-repgen/api/Aviation/ReportMain/GenerateNewestReport/93671/pdf,7/23/2016,Sebastian,Florida,United States,27.813333,-80.495552,0,0,Non-Fatal,non-fatal,False
93711,ERA16LA276,https://data.ntsb.gov/carol-repgen/api/Aviation/ReportMain/GenerateNewestReport/93711/pdf,7/28/2016,Panama City,Florida,United States,30.395833,-85.8125,0,0,Non-Fatal,non-fatal,False
93719,ERA16CA278,https://data.ntsb.gov/carol-repgen/api/Aviation/ReportMain/GenerateNewestReport/93719/pdf,7/31/2016,Valkaria,Florida,United States,27.961389,-80.559448,0,0,Non-Fatal,non-fatal,False
93748,ERA16FA279,https://data.ntsb.gov/carol-repgen/api/Aviation/ReportMain/GenerateNewestReport/93748/pdf,8/2/2016,Destin,Florida,United States,30.373888,-86.470832,1,0,Fatal,fatal,True
93761,GAA16CA415,https://data.ntsb.gov/carol-repgen/api/Aviation/ReportMain/GenerateNewestReport/93761/pdf,7/30/2016,Kissimmee,Florida,United States,28.294445,-81.439445,0,0,Non-Fatal,non-fatal,False
93862,ERA16LA295,https://data.ntsb.gov/carol-repgen/api/Aviation/ReportMain/GenerateNewestReport/93862/pdf,8/19/2016,Hollywood,Florida,United States,26.026666,-80.592781,0,0,Non-Fatal,non-fatal,False
93882,ERA16FA297,https://data.ntsb.gov/carol-repgen/api/Aviation/ReportMain/GenerateNewestReport/93882/pdf,8/24/2016,Sebring,Florida,United States,27.48611,-81.283332,1,0,Fatal,fatal,True
93887,GAA16CA448,https://data.ntsb.gov/carol-repgen/api/Aviation/ReportMain/GenerateNewestReport/93887/pdf,8/21/2016,Miami,Florida,United States,25.645277,-80.432777,0,0,Non-Fatal,non-fatal,False
93890,ERA16LA299,https://data.ntsb.gov/carol-repgen/api/Aviation/ReportMain/GenerateNewestReport/93890/pdf,8/23/2016,Sebring,Florida,United States,27.462223,-81.344169,0,2,Non-Fatal,non-fatal,False
93911,GAA16CA454,https://data.ntsb.gov/carol-repgen/api/Aviation/ReportMain/GenerateNewestReport/93911/pdf,8/13/2016,Fort Lauderdale,Florida,United States,26.193332,-80.164169,0,0,Non-Fatal,non-fatal,False
93919,ERA16LA305,https://data.ntsb.gov/carol-repgen/api/Aviation/ReportMain/GenerateNewestReport/93919/pdf,8/20/2016,Eustis,Florida,United States,28.843334,-81.629997,0,0,Non-Fatal,non-fatal,False
93938,ERA16FA309,https://data.ntsb.gov/carol-repgen/api/Aviation/ReportMain/GenerateNewestReport/93938/pdf,9/3/2016,Hollywood,Florida,United States,26.046667,-80.061943,2,0,Fatal,fatal,True
93956,ERA16FA311,https://data.ntsb.gov/carol-repgen/api/Aviation/ReportMain/GenerateNewestReport/93956/pdf,9/6/2016,Palm Bay,Florida,United States,27.940555,-80.704719,3,0,Fatal,fatal,True
93992,GAA16CA475,https://data.ntsb.gov/carol-repgen/api/Aviation/ReportMain/GenerateNewestReport/93992/pdf,9/10/2016,Apopka,Florida,United States,28.708889,-81.583053,0,0,Non-Fatal,non-fatal,False
94056,GAA16CA498,https://data.ntsb.gov/carol-repgen/api/Aviation/ReportMain/GenerateNewestReport/94056/pdf,9/16/2016,Venice,Florida,United States,27.071111,-82.440834,0,0,Non-Fatal,non-fatal,False
94062,GAA16CA502,https://data.ntsb.gov/carol-repgen/api/Aviation/ReportMain/GenerateNewestReport/94062/pdf,8/24/2016,St. Augustine,Florida,United States,29.959167,-81.339721,0,0,Non-Fatal,non-fatal,False
94068,GAA16CA504,https://data.ntsb.gov/carol-repgen/api/Aviation/ReportMain/GenerateNewestReport/94068/pdf,6/16/2016,Immokalee,Florida,United States,26.43111,-81.404998,0,0,Non-Fatal,non-fatal,False
94080,GAA16CA510,https://data.ntsb.gov/carol-repgen/api/Aviation/ReportMain/GenerateNewestReport/94080/pdf,9/16/2016,Port St. Lucie,Florida,United States,27.240833,-80.488334,0,0,Non-Fatal,non-fatal,False
94194,ERA17CA013,https://data.ntsb.gov/carol-repgen/api/Aviation/ReportMain/GenerateNewestReport/94194/pdf,10/11/2016,Bell,Florida,United States,29.71861,-82.844444,0,1,Non-Fatal,non-fatal,False
94204,GAA17CA022,https://data.ntsb.gov/carol-repgen/api/Aviation/ReportMain/GenerateNewestReport/94204/pdf,10/10/2016,Ocala,Florida,United States,29.16611,-82.223052,0,0,Non-Fatal,non-fatal,False
94227,ERA17LA018,https://data.ntsb.gov/carol-repgen/api/Aviation/ReportMain/GenerateNewestReport/94227/pdf,10/14/2016,Dunnellon,Florida,United States,29.061666,-82.376663,1,0,Fatal,fatal,True
94243,ERA17LA024,https://data.ntsb.gov/carol-repgen/api/Aviation/ReportMain/GenerateNewestReport/94243/pdf,10/19/2016,Cedar Key,Florida,United States,29.1375,-83.046386,0,0,Non-Fatal,non-fatal,False
94257,ERA17LA026,https://data.ntsb.gov/carol-repgen/api/Aviation/ReportMain/GenerateNewestReport/94257/pdf,10/1/2016,Fort Lauderdale,Florida,United States,26.197221,-80.170829,0,0,Non-Fatal,non-fatal,False
94271,GAA16CA526,https://data.ntsb.gov/carol-repgen/api/Aviation/ReportMain/GenerateNewestReport/94271/pdf,9/24/2016,ARCADIA,Florida,United States,27.195833,-81.836669,0,0,Non-Fatal,non-fatal,False
94273,GAA17CA040,https://data.ntsb.gov/carol-repgen/api/Aviation/ReportMain/GenerateNewestReport/94273/pdf,10/23/2016,Arcadia,Florida,United States,27.195554,-81.840278,0,0,Non-Fatal,non-fatal,False
94275,GAA17CA042,https://data.ntsb.gov/carol-repgen/api/Aviation/ReportMain/GenerateNewestReport/94275/pdf,10/17/2016,Miami,Florida,United States,25.653888,-80.432777,0,0,Non-Fatal,non-fatal,False
94276,GAA17CA043,https://data.ntsb.gov/carol-repgen/api/Aviation/ReportMain/GenerateNewestReport/94276/pdf,10/22/2016,Winter Haven,Florida,United States,28.063055,-81.753334,0,0,Non-Fatal,non-fatal,False
94334,ERA17LA034,https://data.ntsb.gov/carol-repgen/api/Aviation/ReportMain/GenerateNewestReport/94334/pdf,10/31/2016,Bartow,Florida,United States,27.964721,-81.786941,0,0,Non-Fatal,non-fatal,False
94350,ERA17LA037,https://data.ntsb.gov/carol-repgen/api/Aviation/ReportMain/GenerateNewestReport/94350/pdf,11/2/2016,Geneva,Florida,United States,28.793333,-81.085556,0,0,Non-Fatal,non-fatal,False
94352,ERA17FA038,https://data.ntsb.gov/carol-repgen/api/Aviation/ReportMain/GenerateNewestReport/94352/pdf,11/9/2016,Crescent City,Florida,United States,29.408056,-81.514442,2,0,Fatal,fatal,True
94357,ERA17LA041,https://data.ntsb.gov/carol-repgen/api/Aviation/ReportMain/GenerateNewestReport/94357/pdf,11/9/2016,Ormond Beach,Florida,United States,29.344999,-81.131385,0,2,Non-Fatal,non-fatal,False
94370,ERA17LA044,https://data.ntsb.gov/carol-repgen/api/Aviation/ReportMain/GenerateNewestReport/94370/pdf,11/13/2016,Miami,Florida,United States,26.336944,-80.625274,0,0,Non-Fatal,non-fatal,False
94374,GAA17CA065,https://data.ntsb.gov/carol-repgen/api/Aviation/ReportMain/GenerateNewestReport/94374/pdf,11/8/2016,Sarasota,Florida,United States,27.390832,-82.556945,0,0,Non-Fatal,non-fatal,False
94412,GAA16CA528,https://data.ntsb.gov/carol-repgen/api/Aviation/ReportMain/GenerateNewestReport/94412/pdf,5/27/2016,Jacksonville,Florida,United States,30.277778,-81.805831,0,0,Non-Fatal,non-fatal,False
94443,GAA17CA081,https://data.ntsb.gov/carol-repgen/api/Aviation/ReportMain/GenerateNewestReport/94443/pdf,11/17/2016,Destin,Florida,United States,30.401945,-86.473335,0,0,Non-Fatal,non-fatal,False
94450,GAA17CA084,https://data.ntsb.gov/carol-repgen/api/Aviation/ReportMain/GenerateNewestReport/94450/pdf,11/23/2016,Pensacola,Florida,United States,30.396944,-87.348892,0,0,Non-Fatal,non-fatal,False
94457,GAA17CA086,https://data.ntsb.gov/carol-repgen/api/Aviation/ReportMain/GenerateNewestReport/94457/pdf,11/18/2016,Ft. Myers,Florida,United States,26.536111,-81.755279,0,0,Non-Fatal,non-fatal,False
94497,ERA17CA068,https://data.ntsb.gov/carol-repgen/api/Aviation/ReportMain/GenerateNewestReport/94497/pdf,12/12/2016,New Smyrna Beach,Florida,United States,29.051944,-81.035278,0,0,Non-Fatal,non-fatal,False
94513,ERA17LA070,https://data.ntsb.gov/carol-repgen/api/Aviation/ReportMain/GenerateNewestReport/94513/pdf,12/17/2016,Ormond Beach,Florida,United States,29.266666,-81.254722,0,1,Non-Fatal,non-fatal,False
94517,ERA17LA071,https://data.ntsb.gov/carol-repgen/api/Aviation/ReportMain/GenerateNewestReport/94517/pdf,12/19/2016,Palm Bay,Florida,United States,27.87,-80.557777,0,0,Non-Fatal,non-fatal,False
94526,GAA17CA097,https://data.ntsb.gov/carol-repgen/api/Aviation/ReportMain/GenerateNewestReport/94526/pdf,12/11/2016,Jacksonville,Florida,United States,30.336111,-81.512779,0,0,Non-Fatal,non-fatal,False
94534,ERA17FA074,https://data.ntsb.gov/carol-repgen/api/Aviation/ReportMain/GenerateNewestReport/94534/pdf,12/27/2016,Port Orange,Florida,United States,29.080278,-81.046669,2,0,Fatal,fatal,True
94544,GAA17CA104,https://data.ntsb.gov/carol-repgen/api/Aviation/ReportMain/GenerateNewestReport/94544/pdf,12/24/2016,Palm Coast,Florida,United States,29.468334,-81.199996,0,0,Non-Fatal,non-fatal,False
94564,ERA17LA077,https://data.ntsb.gov/carol-repgen/api/Aviation/ReportMain/GenerateNewestReport/94564/pdf,12/30/2016,Dunnellon,Florida,United States,29.065,-82.371109,0,0,Non-Fatal,non-fatal,False
94596,GAA17CA111,https://data.ntsb.gov/carol-repgen/api/Aviation/ReportMain/GenerateNewestReport/94596/pdf,1/7/2017,Hollywood,Florida,United States,26.002222,-80.239997,0,0,Non-Fatal,non-fatal,False
94607,ERA17FA088,https://data.ntsb.gov/carol-repgen/api/Aviation/ReportMain/GenerateNewestReport/94607/pdf,1/14/2017,Mayo,Florida,United States,30.121389,-83.225555,1,0,Fatal,fatal,True
94628,ERA17LA091,https://data.ntsb.gov/carol-repgen/api/Aviation/ReportMain/GenerateNewestReport/94628/pdf,1/17/2017,Pierson,Florida,United States,29.25,-81.459442,0,2,Non-Fatal,non-fatal,False
94648,GAA17CA122,https://data.ntsb.gov/carol-repgen/api/Aviation/ReportMain/GenerateNewestReport/94648/pdf,1/12/2017,Punta Gorda,Florida,United States,26.918888,-81.990837,0,0,Non-Fatal,non-fatal,False
94658,ERA17LA095,https://data.ntsb.gov/carol-repgen/api/Aviation/ReportMain/GenerateNewestReport/94658/pdf,1/26/2017,Clearwater,Florida,United States,27.977222,-82.759162,0,0,Non-Fatal,non-fatal,False
94659,ERA17LA096,https://data.ntsb.gov/carol-repgen/api/Aviation/ReportMain/GenerateNewestReport/94659/pdf,1/27/2017,West Palm Beach,Florida,United States,26.683055,-80.095558,0,0,Non-Fatal,non-fatal,False
94689,ERA17CA101,https://data.ntsb.gov/carol-repgen/api/Aviation/ReportMain/GenerateNewestReport/94689/pdf,2/6/2017,West Palm Beach,Florida,United States,26.845832,-80.222221,0,0,Non-Fatal,non-fatal,False
94709,GAA17CA136,https://data.ntsb.gov/carol-repgen/api/Aviation/ReportMain/GenerateNewestReport/94709/pdf,2/11/2017,Punta Gorda,Florida,United States,26.912776,-81.991943,0,0,Non-Fatal,non-fatal,False
94715,GAA17CA138,https://data.ntsb.gov/carol-repgen/api/Aviation/ReportMain/GenerateNewestReport/94715/pdf,2/11/2017,St. Petersburg,Florida,United States,27.764999,-82.626945,0,0,Non-Fatal,non-fatal,False
94723,ERA17FA108,https://data.ntsb.gov/carol-repgen/api/Aviation/ReportMain/GenerateNewestReport/94723/pdf,2/12/2017,Cedar Key,Florida,United States,29.049165,-82.968055,3,0,Fatal,fatal,True
94749,GAA17CA149,https://data.ntsb.gov/carol-repgen/api/Aviation/ReportMain/GenerateNewestReport/94749/pdf,12/13/2016,Palm Coast,Florida,United States,29.464721,-81.206947,0,0,Non-Fatal,non-fatal,False
94769,ERA17LA113,https://data.ntsb.gov/carol-repgen/api/Aviation/ReportMain/GenerateNewestReport/94769/pdf,2/24/2017,Daytona Beach,Florida,United States,29.070833,-81.070831,0,2,Non-Fatal,non-fatal,False
94797,GAA17CA163,https://data.ntsb.gov/carol-repgen/api/Aviation/ReportMain/GenerateNewestReport/94797/pdf,3/1/2017,St Petersburg,Florida,United States,27.764999,-82.626945,0,0,Non-Fatal,non-fatal,False
94806,GAA17CA169,https://data.ntsb.gov/carol-repgen/api/Aviation/ReportMain/GenerateNewestReport/94806/pdf,2/3/2017,Bonifay,Florida,United States,30.845832,-85.601387,0,0,Non-Fatal,non-fatal,False
94809,ERA17FA119,https://data.ntsb.gov/carol-repgen/api/Aviation/ReportMain/GenerateNewestReport/94809/pdf,3/4/2017,Duette,Florida,United States,27.613889,-82.084442,2,0,Fatal,fatal,True
94819,ERA17LA121,https://data.ntsb.gov/carol-repgen/api/Aviation/ReportMain/GenerateNewestReport/94819/pdf,3/2/2017,Ft Lauderdale,Florida,United States,26.197221,-80.170829,0,0,Non-Fatal,non-fatal,False
94836,ERA17LA122,https://data.ntsb.gov/carol-repgen/api/Aviation/ReportMain/GenerateNewestReport/94836/pdf,3/1/2017,West Palm Beach,Florida,United States,26.842777,-80.231666,0,0,Non-Fatal,non-fatal,False
94837,GAA17CA178,https://data.ntsb.gov/carol-repgen/api/Aviation/ReportMain/GenerateNewestReport/94837/pdf,2/21/2017,Ormond beach,Florida,United States,29.301944,-81.113891,0,0,Non-Fatal,non-fatal,False
94845,GAA17CA180,https://data.ntsb.gov/carol-repgen/api/Aviation/ReportMain/GenerateNewestReport/94845/pdf,2/17/2017,Naples,Florida,United States,26.148332,-81.774719,0,0,Non-Fatal,non-fatal,False
94851,GAA17CA181,https://data.ntsb.gov/carol-repgen/api/Aviation/ReportMain/GenerateNewestReport/94851/pdf,3/8/2017,West Palm Beach,Florida,United States,26.845832,-80.222221,0,0,Non-Fatal,non-fatal,False
94855,ERA17LA128,https://data.ntsb.gov/carol-repgen/api/Aviation/ReportMain/GenerateNewestReport/94855/pdf,3/12/2017,Tampa,Florida,United States,27.910554,-82.449722,0,0,Non-Fatal,non-fatal,False
94864,ERA17LA130,https://data.ntsb.gov/carol-repgen/api/Aviation/ReportMain/GenerateNewestReport/94864/pdf,2/25/2017,Melbourne,Florida,United States,28.102777,-80.645278,0,0,Non-Fatal,non-fatal,False
94930,GAA17CA209,https://data.ntsb.gov/carol-repgen/api/Aviation/ReportMain/GenerateNewestReport/94930/pdf,3/28/2017,St. Petersburg,Florida,United States,27.764999,-82.629165,0,0,Non-Fatal,non-fatal,False
94933,GAA17CA211,https://data.ntsb.gov/carol-repgen/api/Aviation/ReportMain/GenerateNewestReport/94933/pdf,4/28/2017,Cedar Key,Florida,United States,29.134166,-83.050552,0,0,Non-Fatal,non-fatal,False
94944,ERA17FA143,https://data.ntsb.gov/carol-repgen/api/Aviation/ReportMain/GenerateNewestReport/94944/pdf,4/1/2017,Edgewater,Florida,United States,28.959444,-80.957221,2,0,Fatal,fatal,True
94954,GAA17CA213,https://data.ntsb.gov/carol-repgen/api/Aviation/ReportMain/GenerateNewestReport/94954/pdf,4/1/2017,Key Largo,Florida,United States,25.35,-80.300003,0,0,Non-Fatal,non-fatal,False
94959,ERA17FA145,https://data.ntsb.gov/carol-repgen/api/Aviation/ReportMain/GenerateNewestReport/94959/pdf,4/4/2017,Micanopy,Florida,United States,29.465278,-82.375,1,0,Fatal,fatal,True
94974,ERA17FA148,https://data.ntsb.gov/carol-repgen/api/Aviation/ReportMain/GenerateNewestReport/94974/pdf,4/8/2017,Sanford,Florida,United States,28.77,-81.218887,1,0,Fatal,fatal,True
94976,ERA17LA150,https://data.ntsb.gov/carol-repgen/api/Aviation/ReportMain/GenerateNewestReport/94976/pdf,4/8/2017,South Lakeland,Florida,United States,27.988889,-82.018608,0,0,Non-Fatal,non-fatal,False
95005,ERA17FA155,https://data.ntsb.gov/carol-repgen/api/Aviation/ReportMain/GenerateNewestReport/95005/pdf,4/15/2017,Williston,Florida,United States,29.366111,-82.463607,4,0,Fatal,fatal,True
95034,ERA17LA160,https://data.ntsb.gov/carol-repgen/api/Aviation/ReportMain/GenerateNewestReport/95034/pdf,4/19/2017,Yankeetown,Florida,United States,29.001667,-82.762222,0,0,Non-Fatal,non-fatal,False
95040,ERA17LA163,https://data.ntsb.gov/carol-repgen/api/Aviation/ReportMain/GenerateNewestReport/95040/pdf,4/20/2017,Orlando,Florida,United States,28.45,-81.470558,0,0,Non-Fatal,non-fatal,False
95090,ERA17LA169,https://data.ntsb.gov/carol-repgen/api/Aviation/ReportMain/GenerateNewestReport/95090/pdf,4/30/2017,Coral Springs,Florida,United States,26.315277,-80.240554,0,0,Non-Fatal,non-fatal,False
95097,ERA17TA170,https://data.ntsb.gov/carol-repgen/api/Aviation/ReportMain/GenerateNewestReport/95097/pdf,5/2/2017,Orange Springs,Florida,United States,29.462778,-81.978057,0,1,Non-Fatal,non-fatal,False
95118,ERA17FA174,https://data.ntsb.gov/carol-repgen/api/Aviation/ReportMain/GenerateNewestReport/95118/pdf,5/5/2017,Clearwater,Florida,United States,27.977777,-82.759162,1,0,Fatal,fatal,True
95168,GAA17CA277,https://data.ntsb.gov/carol-repgen/api/Aviation/ReportMain/GenerateNewestReport/95168/pdf,5/12/2017,Boca Raton,Florida,United States,26.376667,-80.108612,0,0,Non-Fatal,non-fatal,False
95314,GAA17CA324,https://data.ntsb.gov/carol-repgen/api/Aviation/ReportMain/GenerateNewestReport/95314/pdf,5/28/2017,Boca Raton,Florida,United States,26.382223,-80.103614,0,0,Non-Fatal,non-fatal,False
95342,ERA17LA201,https://data.ntsb.gov/carol-repgen/api/Aviation/ReportMain/GenerateNewestReport/95342/pdf,6/11/2017,Gordonville,Florida,United States,27.945554,-81.798614,0,1,Non-Fatal,non-fatal,False
95343,ERA17LA202,https://data.ntsb.gov/carol-repgen/api/Aviation/ReportMain/GenerateNewestReport/95343/pdf,6/10/2017,Tamiami,Florida,United States,25.647499,-80.433334,0,0,Non-Fatal,non-fatal,False
95390,ERA17CA208,https://data.ntsb.gov/carol-repgen/api/Aviation/ReportMain/GenerateNewestReport/95390/pdf,6/16/2017,Cedar Key,Florida,United States,29.136388,-83.0475,0,0,Non-Fatal,non-fatal,False
95399,GAA17CA348,https://data.ntsb.gov/carol-repgen/api/Aviation/ReportMain/GenerateNewestReport/95399/pdf,6/18/2017,Palatka,Florida,United States,29.658056,-81.68972,0,0,Non-Fatal,non-fatal,False
95401,GAA17CA350,https://data.ntsb.gov/carol-repgen/api/Aviation/ReportMain/GenerateNewestReport/95401/pdf,6/18/2017,Williston,Florida,United States,29.355556,-82.471946,0,0,Non-Fatal,non-fatal,False
95425,ERA17FA210,https://data.ntsb.gov/carol-repgen/api/Aviation/ReportMain/GenerateNewestReport/95425/pdf,6/24/2017,Fort Myers,Florida,United States,26.578611,-81.852775,1,1,Fatal,fatal,True
95430,ERA17LA212,https://data.ntsb.gov/carol-repgen/api/Aviation/ReportMain/GenerateNewestReport/95430/pdf,6/24/2017,Panama City,Florida,United States,30.0,-85.0,0,0,Non-Fatal,non-fatal,False
95466,ERA17LA220,https://data.ntsb.gov/carol-repgen/api/Aviation/ReportMain/GenerateNewestReport/95466/pdf,6/30/2017,Baker,Florida,United States,30.854166,-86.667221,0,1,Non-Fatal,non-fatal,False
95467,ERA17CA221,https://data.ntsb.gov/carol-repgen/api/Aviation/ReportMain/GenerateNewestReport/95467/pdf,6/29/2017,Miami,Florida,United States,25.652778,-80.436111,0,0,Non-Fatal,non-fatal,False
95504,ERA17FA231,https://data.ntsb.gov/carol-repgen/api/Aviation/ReportMain/GenerateNewestReport/95504/pdf,7/1/2017,Homestead,Florida,United States,25.495832,-80.747497,1,0,Fatal,fatal,True
95511,ERA17LA234,https://data.ntsb.gov/carol-repgen/api/Aviation/ReportMain/GenerateNewestReport/95511/pdf,7/7/2017,Cape Coral,Florida,United States,26.637222,-81.976112,0,0,Non-Fatal,non-fatal,False
95517,GAA17CA391,https://data.ntsb.gov/carol-repgen/api/Aviation/ReportMain/GenerateNewestReport/95517/pdf,7/1/2017,Ferguson,Florida,United States,30.398332,-87.348892,0,0,Non-Fatal,non-fatal,False
