MKey,NTSBNumber,Report,EventDate,City,StateOrRegion,Country,Latitude,Longitude,FatalInjuries,SeriousInjuries,InjuryLevel,InjuryCategory,IsFatal
82607,CEN12LA120,https://data.ntsb.gov/carol-repgen/api/Aviation/ReportMain/GenerateNewestReport/82607/pdf,1/1/2012,Lohn,Texas,United States,31.325,-99.408332,0,2,Non-Fatal,non-fatal,False
82616,CEN12TA122,https://data.ntsb.gov/carol-repgen/api/Aviation/ReportMain/GenerateNewestReport/82616/pdf,1/3/2012,Conroe,Texas,United States,30.30861,-95.449996,0,0,Non-Fatal,non-fatal,False
82621,CEN12LA124,https://data.ntsb.gov/carol-repgen/api/Aviation/ReportMain/GenerateNewestReport/82621/pdf,1/3/2012,San Angelo,Texas,United States,31.280374,-100.410598,0,0,Non-Fatal,non-fatal,False
82857,CEN12FA152,https://data.ntsb.gov/carol-repgen/api/Aviation/ReportMain/GenerateNewestReport/82857/pdf,2/8/2012,Frankston,Texas,United States,32.077499,-95.436943,1,0,Fatal,fatal,True
82862,CEN12FA154,https://data.ntsb.gov/carol-repgen/api/Aviation/ReportMain/GenerateNewestReport/82862/pdf,2/10/2012,Floresville,Texas,United States,29.149999,-98.272781,1,0,Fatal,fatal,True
82896,CEN12FA164,https://data.ntsb.gov/carol-repgen/api/Aviation/ReportMain/GenerateNewestReport/82896/pdf,2/20/2012,Albany,Texas,United States,32.808887,-99.323608,2,0,Fatal,fatal,True
82958,CEN12LA168,https://data.ntsb.gov/carol-repgen/api/Aviation/ReportMain/GenerateNewestReport/82958/pdf,2/21/2012,Conroe,Texas,United States,30.3525,-95.414443,0,0,Non-Fatal,non-fatal,False
82963,CEN12LA169,https://data.ntsb.gov/carol-repgen/api/Aviation/ReportMain/GenerateNewestReport/82963/pdf,2/23/2012,Cypress,Texas,United States,29.95977,-95.689437,0,1,Non-Fatal,non-fatal,False
82970,CEN12FA170,https://data.ntsb.gov/carol-repgen/api/Aviation/ReportMain/GenerateNewestReport/82970/pdf,2/26/2012,San Antonio,Texas,United States,29.321111,-98.459724,2,0,Fatal,fatal,True
83067,CEN12LA181,https://data.ntsb.gov/carol-repgen/api/Aviation/ReportMain/GenerateNewestReport/83067/pdf,3/5/2012,Staples,Texas,United States,29.821111,-97.863052,0,0,Non-Fatal,non-fatal,False
83157,CEN12LA189,https://data.ntsb.gov/carol-repgen/api/Aviation/ReportMain/GenerateNewestReport/83157/pdf,3/18/2012,Arcola,Texas,United States,29.506111,-95.476943,0,0,Non-Fatal,non-fatal,False
83160,CEN12CA190,https://data.ntsb.gov/carol-repgen/api/Aviation/ReportMain/GenerateNewestReport/83160/pdf,3/17/2012,Fort Worth,Texas,United States,32.93111,-97.411666,0,0,Non-Fatal,non-fatal,False
83168,CEN12LA192,https://data.ntsb.gov/carol-repgen/api/Aviation/ReportMain/GenerateNewestReport/83168/pdf,1/28/2012,Seguin,Texas,United States,29.566667,-97.949996,0,0,Non-Fatal,non-fatal,False
83217,CEN12CA201,https://data.ntsb.gov/carol-repgen/api/Aviation/ReportMain/GenerateNewestReport/83217/pdf,3/24/2012,McKinney,Texas,United States,33.177776,-96.590278,0,0,Non-Fatal,non-fatal,False
83219,CEN12CA202,https://data.ntsb.gov/carol-repgen/api/Aviation/ReportMain/GenerateNewestReport/83219/pdf,3/24/2012,Casterville,Texas,United States,29.340509,-98.870063,0,0,Non-Fatal,non-fatal,False
83220,CEN12LA203,https://data.ntsb.gov/carol-repgen/api/Aviation/ReportMain/GenerateNewestReport/83220/pdf,3/24/2012,Granite Shoals,Texas,United States,30.593055,-98.394165,1,1,Fatal,fatal,True
83221,CEN12LA204,https://data.ntsb.gov/carol-repgen/api/Aviation/ReportMain/GenerateNewestReport/83221/pdf,3/2/2012,Roanoke,Texas,United States,33.04972,-97.232223,0,0,Non-Fatal,non-fatal,False
83251,CEN12LA214,https://data.ntsb.gov/carol-repgen/api/Aviation/ReportMain/GenerateNewestReport/83251/pdf,3/29/2012,Midlothian,Texas,United States,32.458332,-96.912498,0,0,Non-Fatal,non-fatal,False
83256,CEN12LA216,https://data.ntsb.gov/carol-repgen/api/Aviation/ReportMain/GenerateNewestReport/83256/pdf,3/30/2012,Arcola,Texas,United States,29.506111,-95.476943,0,0,Non-Fatal,non-fatal,False
83278,CEN12LA220,https://data.ntsb.gov/carol-repgen/api/Aviation/ReportMain/GenerateNewestReport/83278/pdf,3/23/2012,Addison,Texas,United States,32.968612,-96.836387,0,0,Non-Fatal,non-fatal,False
83279,CEN12CA221,https://data.ntsb.gov/carol-repgen/api/Aviation/ReportMain/GenerateNewestReport/83279/pdf,4/2/2012,Ganado,Texas,United States,28.9825,-96.412223,0,0,Non-Fatal,non-fatal,False
83297,CEN12CA226,https://data.ntsb.gov/carol-repgen/api/Aviation/ReportMain/GenerateNewestReport/83297/pdf,3/31/2012,Anahuac,Texas,United States,29.771667,-94.66333,0,0,Non-Fatal,non-fatal,False
83298,CEN12LA227,https://data.ntsb.gov/carol-repgen/api/Aviation/ReportMain/GenerateNewestReport/83298/pdf,4/4/2012,Breckenridge,Texas,United States,32.718887,-98.89167,1,0,Fatal,fatal,True
83305,CEN12LA228,https://data.ntsb.gov/carol-repgen/api/Aviation/ReportMain/GenerateNewestReport/83305/pdf,4/3/2012,Corpus Christi,Texas,United States,27.770277,-97.501113,0,0,Non-Fatal,non-fatal,False
83306,CEN12LA229,https://data.ntsb.gov/carol-repgen/api/Aviation/ReportMain/GenerateNewestReport/83306/pdf,4/3/2012,San Marcos,Texas,United States,29.892778,-97.863052,0,0,Non-Fatal,non-fatal,False
83426,CEN12FA249,https://data.ntsb.gov/carol-repgen/api/Aviation/ReportMain/GenerateNewestReport/83426/pdf,4/17/2012,San Angelo,Texas,United States,31.358333,-100.612777,0,0,Non-Fatal,non-fatal,False
83460,CEN12LA253,https://data.ntsb.gov/carol-repgen/api/Aviation/ReportMain/GenerateNewestReport/83460/pdf,4/22/2012,Pearland,Texas,United States,29.52111,-95.241943,0,1,Non-Fatal,non-fatal,False
83469,CEN12LA254,https://data.ntsb.gov/carol-repgen/api/Aviation/ReportMain/GenerateNewestReport/83469/pdf,4/22/2012,New Braunfels,Texas,United States,29.704444,-98.042221,0,0,Non-Fatal,non-fatal,False
83470,CEN12LA255,https://data.ntsb.gov/carol-repgen/api/Aviation/ReportMain/GenerateNewestReport/83470/pdf,4/22/2012,Wildorado,Texas,United States,35.150051,-102.220039,0,0,Non-Fatal,non-fatal,False
83485,CEN12LA257,https://data.ntsb.gov/carol-repgen/api/Aviation/ReportMain/GenerateNewestReport/83485/pdf,4/23/2012,Laneville,Texas,United States,31.936111,-94.837776,0,0,Non-Fatal,non-fatal,False
83488,CEN12LA258,https://data.ntsb.gov/carol-repgen/api/Aviation/ReportMain/GenerateNewestReport/83488/pdf,4/26/2012,Amarillo,Texas,United States,35.218055,-101.703613,0,0,Non-Fatal,non-fatal,False
83489,CEN12LA260,https://data.ntsb.gov/carol-repgen/api/Aviation/ReportMain/GenerateNewestReport/83489/pdf,4/25/2012,Bryan,Texas,United States,30.554166,-96.438331,0,0,Non-Fatal,non-fatal,False
83567,CEN12CA277,https://data.ntsb.gov/carol-repgen/api/Aviation/ReportMain/GenerateNewestReport/83567/pdf,5/1/2012,San Antonio,Texas,United States,29.336944,-98.471107,0,0,Non-Fatal,non-fatal,False
83581,CEN12CA281,https://data.ntsb.gov/carol-repgen/api/Aviation/ReportMain/GenerateNewestReport/83581/pdf,5/5/2012,Houston,Texas,United States,29.817499,-95.67028,0,0,Non-Fatal,non-fatal,False
83596,CEN12CA286,https://data.ntsb.gov/carol-repgen/api/Aviation/ReportMain/GenerateNewestReport/83596/pdf,5/9/2012,Cleburne,Texas,United States,32.353889,-97.433891,0,0,Non-Fatal,non-fatal,False
83625,CEN12CA292,https://data.ntsb.gov/carol-repgen/api/Aviation/ReportMain/GenerateNewestReport/83625/pdf,5/12/2012,Pecos,Texas,United States,31.382223,-103.510559,0,0,Non-Fatal,non-fatal,False
83646,CEN12LA300,https://data.ntsb.gov/carol-repgen/api/Aviation/ReportMain/GenerateNewestReport/83646/pdf,5/9/2012,Midland,Texas,United States,31.938888,-102.20111,0,0,Non-Fatal,non-fatal,False
83649,CEN12CA301,https://data.ntsb.gov/carol-repgen/api/Aviation/ReportMain/GenerateNewestReport/83649/pdf,5/7/2012,El Campo,Texas,United States,29.270833,-96.326385,0,0,Non-Fatal,non-fatal,False
83658,CEN12CA303,https://data.ntsb.gov/carol-repgen/api/Aviation/ReportMain/GenerateNewestReport/83658/pdf,5/12/2012,Houston,Texas,United States,29.506111,-95.476669,0,0,Non-Fatal,non-fatal,False
83719,CEN12FA311,https://data.ntsb.gov/carol-repgen/api/Aviation/ReportMain/GenerateNewestReport/83719/pdf,5/20/2012,Boyd,Texas,United States,33.022499,-97.636665,1,3,Fatal,fatal,True
83793,CEN12CA328,https://data.ntsb.gov/carol-repgen/api/Aviation/ReportMain/GenerateNewestReport/83793/pdf,5/17/2012,Pipe Creek,Texas,United States,29.713888,-98.86,0,0,Non-Fatal,non-fatal,False
83868,CEN12CA341,https://data.ntsb.gov/carol-repgen/api/Aviation/ReportMain/GenerateNewestReport/83868/pdf,6/4/2012,Houston,Texas,United States,29.935556,-95.639442,0,0,Non-Fatal,non-fatal,False
83979,CEN12CA372,https://data.ntsb.gov/carol-repgen/api/Aviation/ReportMain/GenerateNewestReport/83979/pdf,6/14/2012,Alpine,Texas,United States,30.383888,-103.683334,0,0,Non-Fatal,non-fatal,False
83980,CEN12LA371,https://data.ntsb.gov/carol-repgen/api/Aviation/ReportMain/GenerateNewestReport/83980/pdf,6/9/2012,San Antonio,Texas,United States,29.510278,-98.798332,0,0,Non-Fatal,non-fatal,False
84014,CEN12FA378,https://data.ntsb.gov/carol-repgen/api/Aviation/ReportMain/GenerateNewestReport/84014/pdf,6/17/2012,Wallis,Texas,United States,29.600555,-96.02333,3,0,Fatal,fatal,True
84035,CEN12LA384,https://data.ntsb.gov/carol-repgen/api/Aviation/ReportMain/GenerateNewestReport/84035/pdf,6/15/2012,Lake Dallas,Texas,United States,33.125556,-97.008613,0,0,Non-Fatal,non-fatal,False
84094,CEN12CA394,https://data.ntsb.gov/carol-repgen/api/Aviation/ReportMain/GenerateNewestReport/84094/pdf,6/26/2012,Fredricksburg,Texas,United States,30.243055,-98.909164,0,0,Non-Fatal,non-fatal,False
84219,CEN12FA421,https://data.ntsb.gov/carol-repgen/api/Aviation/ReportMain/GenerateNewestReport/84219/pdf,7/7/2012,Karnack,Texas,United States,32.661945,-94.219718,1,0,Fatal,fatal,True
84236,CEN12FA425,https://data.ntsb.gov/carol-repgen/api/Aviation/ReportMain/GenerateNewestReport/84236/pdf,7/5/2012,Mesquite,Texas,United States,32.74139,-96.524719,0,0,Non-Fatal,non-fatal,False
84276,CEN12CA431,https://data.ntsb.gov/carol-repgen/api/Aviation/ReportMain/GenerateNewestReport/84276/pdf,7/6/2012,Denton,Texas,United States,33.201946,-97.197776,0,0,Non-Fatal,non-fatal,False
84414,CEN12LA467,https://data.ntsb.gov/carol-repgen/api/Aviation/ReportMain/GenerateNewestReport/84414/pdf,7/21/2012,Miami,Texas,United States,35.761112,-100.751945,0,1,Non-Fatal,non-fatal,False
84431,CEN12CA474,https://data.ntsb.gov/carol-repgen/api/Aviation/ReportMain/GenerateNewestReport/84431/pdf,7/24/2012,Houston,Texas,United States,29.707777,-95.390556,0,0,Non-Fatal,non-fatal,False
84447,CEN12LA477,https://data.ntsb.gov/carol-repgen/api/Aviation/ReportMain/GenerateNewestReport/84447/pdf,7/22/2012,Leander,Texas,United States,30.599445,-97.823608,0,0,Non-Fatal,non-fatal,False
84467,CEN12CA482,https://data.ntsb.gov/carol-repgen/api/Aviation/ReportMain/GenerateNewestReport/84467/pdf,7/25/2012,Weatherford,Texas,United States,32.741111,-97.676109,0,0,Non-Fatal,non-fatal,False
84539,CEN12LA501,https://data.ntsb.gov/carol-repgen/api/Aviation/ReportMain/GenerateNewestReport/84539/pdf,8/1/2012,Holly Lake Ranch,Texas,United States,32.697498,-95.207778,0,1,Non-Fatal,non-fatal,False
84570,CEN12LA515,https://data.ntsb.gov/carol-repgen/api/Aviation/ReportMain/GenerateNewestReport/84570/pdf,8/2/2012,Houston,Texas,United States,29.829641,-95.659408,0,0,Non-Fatal,non-fatal,False
84580,CEN12FA520,https://data.ntsb.gov/carol-repgen/api/Aviation/ReportMain/GenerateNewestReport/84580/pdf,8/4/2012,Fate,Texas,United States,32.916667,-96.383331,0,0,Non-Fatal,non-fatal,False
84593,CEN12LA524,https://data.ntsb.gov/carol-repgen/api/Aviation/ReportMain/GenerateNewestReport/84593/pdf,8/7/2012,Carthage,Texas,United States,32.176109,-94.298614,0,0,Non-Fatal,non-fatal,False
84595,CEN12LA525,https://data.ntsb.gov/carol-repgen/api/Aviation/ReportMain/GenerateNewestReport/84595/pdf,8/7/2012,Avalon,Texas,United States,32.273887,-96.76583,0,0,Non-Fatal,non-fatal,False
84607,CEN12LA529,https://data.ntsb.gov/carol-repgen/api/Aviation/ReportMain/GenerateNewestReport/84607/pdf,8/7/2012,Palo Pinto,Texas,United States,32.821109,-98.478614,0,0,Non-Fatal,non-fatal,False
84757,CEN12FA561,https://data.ntsb.gov/carol-repgen/api/Aviation/ReportMain/GenerateNewestReport/84757/pdf,8/4/2012,San Saba,Texas,United States,31.234443,-98.716941,0,0,Non-Fatal,non-fatal,False
84768,CEN12LA566,https://data.ntsb.gov/carol-repgen/api/Aviation/ReportMain/GenerateNewestReport/84768/pdf,8/21/2012,Gilmer,Texas,United States,32.697776,-94.948608,0,2,Non-Fatal,non-fatal,False
84775,CEN12CA568,https://data.ntsb.gov/carol-repgen/api/Aviation/ReportMain/GenerateNewestReport/84775/pdf,8/17/2012,Bogata,Texas,United States,33.470554,-95.213607,0,0,Non-Fatal,non-fatal,False
84787,CEN12FA570,https://data.ntsb.gov/carol-repgen/api/Aviation/ReportMain/GenerateNewestReport/84787/pdf,8/25/2012,Llano,Texas,United States,30.749486,-98.669937,2,0,Fatal,fatal,True
84855,CEN12LA589,https://data.ntsb.gov/carol-repgen/api/Aviation/ReportMain/GenerateNewestReport/84855/pdf,8/29/2012,Ralls,Texas,United States,33.607776,-101.323608,0,0,Non-Fatal,non-fatal,False
84900,CEN12CA595,https://data.ntsb.gov/carol-repgen/api/Aviation/ReportMain/GenerateNewestReport/84900/pdf,8/24/2012,Comfort,Texas,United States,29.928888,-98.940277,0,0,Non-Fatal,non-fatal,False
84928,CEN12LA605,https://data.ntsb.gov/carol-repgen/api/Aviation/ReportMain/GenerateNewestReport/84928/pdf,9/1/2012,El Paso,Texas,United States,31.71861,-106.235275,1,0,Fatal,fatal,True
84930,CEN12FA606,https://data.ntsb.gov/carol-repgen/api/Aviation/ReportMain/GenerateNewestReport/84930/pdf,9/5/2012,Fort Worth,Texas,United States,32.558887,-97.304725,0,2,Non-Fatal,non-fatal,False
84940,CEN12CA608,https://data.ntsb.gov/carol-repgen/api/Aviation/ReportMain/GenerateNewestReport/84940/pdf,9/3/2012,Navasota,Texas,United States,30.269721,-95.967224,0,0,Non-Fatal,non-fatal,False
84943,CEN12LA609,https://data.ntsb.gov/carol-repgen/api/Aviation/ReportMain/GenerateNewestReport/84943/pdf,9/5/2012,Hamilton,Texas,United States,31.665832,-98.148612,0,0,Non-Fatal,non-fatal,False
84960,CEN12CA612,https://data.ntsb.gov/carol-repgen/api/Aviation/ReportMain/GenerateNewestReport/84960/pdf,9/6/2012,Decatur,Texas,United States,33.254165,-97.580276,0,0,Non-Fatal,non-fatal,False
84965,CEN12CA614,https://data.ntsb.gov/carol-repgen/api/Aviation/ReportMain/GenerateNewestReport/84965/pdf,9/1/2012,Lancaster,Texas,United States,32.577499,-96.717498,0,0,Non-Fatal,non-fatal,False
84972,CEN12FA616,https://data.ntsb.gov/carol-repgen/api/Aviation/ReportMain/GenerateNewestReport/84972/pdf,9/8/2012,Kingsland,Texas,United States,30.68361,-98.419441,1,0,Fatal,fatal,True
84979,CEN12CA618,https://data.ntsb.gov/carol-repgen/api/Aviation/ReportMain/GenerateNewestReport/84979/pdf,9/8/2012,Decatur,Texas,United States,33.254165,-97.580558,0,0,Non-Fatal,non-fatal,False
84993,CEN12FA621,https://data.ntsb.gov/carol-repgen/api/Aviation/ReportMain/GenerateNewestReport/84993/pdf,9/10/2012,Houston,Texas,United States,29.784721,-94.951385,2,0,Fatal,fatal,True
85008,CEN12LA623,https://data.ntsb.gov/carol-repgen/api/Aviation/ReportMain/GenerateNewestReport/85008/pdf,9/9/2012,Gilmer,Texas,United States,32.697776,-94.948608,0,0,Non-Fatal,non-fatal,False
85019,CEN12FA628,https://data.ntsb.gov/carol-repgen/api/Aviation/ReportMain/GenerateNewestReport/85019/pdf,9/12/2012,Bullard,Texas,United States,32.1375,-95.432777,1,0,Fatal,fatal,True
85025,CEN12CA631,https://data.ntsb.gov/carol-repgen/api/Aviation/ReportMain/GenerateNewestReport/85025/pdf,8/27/2012,Luling,Texas,United States,29.728055,-97.659164,0,0,Non-Fatal,non-fatal,False
85079,CEN12CA643,https://data.ntsb.gov/carol-repgen/api/Aviation/ReportMain/GenerateNewestReport/85079/pdf,9/18/2012,Slaton,Texas,United States,33.485279,-101.661666,0,0,Non-Fatal,non-fatal,False
85089,CEN12CA644,https://data.ntsb.gov/carol-repgen/api/Aviation/ReportMain/GenerateNewestReport/85089/pdf,9/11/2012,Kenedy,Texas,United States,28.824722,-97.865554,0,0,Non-Fatal,non-fatal,False
85099,CEN12CA647,https://data.ntsb.gov/carol-repgen/api/Aviation/ReportMain/GenerateNewestReport/85099/pdf,9/16/2012,Fort Worth,Texas,United States,32.93111,-97.411666,0,0,Non-Fatal,non-fatal,False
85106,CEN12LA650,https://data.ntsb.gov/carol-repgen/api/Aviation/ReportMain/GenerateNewestReport/85106/pdf,9/19/2012,Rio Vista,Texas,United States,32.230785,-97.370635,0,0,Non-Fatal,non-fatal,False
85118,CEN12FA654,https://data.ntsb.gov/carol-repgen/api/Aviation/ReportMain/GenerateNewestReport/85118/pdf,9/22/2012,Roanoke,Texas,United States,33.050556,-97.231941,2,0,Fatal,fatal,True
85220,CEN12LA669,https://data.ntsb.gov/carol-repgen/api/Aviation/ReportMain/GenerateNewestReport/85220/pdf,9/30/2012,Nocona,Texas,United States,33.881668,-97.652221,0,0,Non-Fatal,non-fatal,False
85269,CEN13FA006,https://data.ntsb.gov/carol-repgen/api/Aviation/ReportMain/GenerateNewestReport/85269/pdf,10/6/2012,Mabank,Texas,United States,32.4775,-96.065002,4,0,Fatal,fatal,True
85313,CEN13FA010,https://data.ntsb.gov/carol-repgen/api/Aviation/ReportMain/GenerateNewestReport/85313/pdf,10/11/2012,Blanco,Texas,United States,30.051944,-98.606666,3,0,Fatal,fatal,True
85329,CEN12LA672,https://data.ntsb.gov/carol-repgen/api/Aviation/ReportMain/GenerateNewestReport/85329/pdf,9/7/2012,Horseshoe Bay,Texas,United States,31.627222,-98.358612,0,0,Non-Fatal,non-fatal,False
85330,CEN13LA011,https://data.ntsb.gov/carol-repgen/api/Aviation/ReportMain/GenerateNewestReport/85330/pdf,10/11/2012,Roanoke,Texas,United States,33.036109,-97.231666,0,0,Non-Fatal,non-fatal,False
85384,CEN13CA017,https://data.ntsb.gov/carol-repgen/api/Aviation/ReportMain/GenerateNewestReport/85384/pdf,10/20/2012,Bourland,Texas,United States,32.581943,-97.590835,0,1,Non-Fatal,non-fatal,False
85394,CEN13CA022,https://data.ntsb.gov/carol-repgen/api/Aviation/ReportMain/GenerateNewestReport/85394/pdf,10/21/2012,Loop,Texas,United States,32.859165,-102.289169,0,0,Non-Fatal,non-fatal,False
85461,CEN13LA034,https://data.ntsb.gov/carol-repgen/api/Aviation/ReportMain/GenerateNewestReport/85461/pdf,10/28/2012,Mont Belvieu,Texas,United States,29.759145,-94.870796,2,0,Fatal,fatal,True
85479,CEN13CA037,https://data.ntsb.gov/carol-repgen/api/Aviation/ReportMain/GenerateNewestReport/85479/pdf,10/27/2012,Reklaw,Texas,United States,31.839721,-94.961112,0,0,Non-Fatal,non-fatal,False
85483,CEN13FA039,https://data.ntsb.gov/carol-repgen/api/Aviation/ReportMain/GenerateNewestReport/85483/pdf,11/1/2012,San Marcos,Texas,United States,29.879444,-97.883056,1,0,Fatal,fatal,True
85493,CEN13CA040,https://data.ntsb.gov/carol-repgen/api/Aviation/ReportMain/GenerateNewestReport/85493/pdf,11/2/2012,McKinney,Texas,United States,33.176944,-96.58889,0,0,Non-Fatal,non-fatal,False
85494,CEN13LA041,https://data.ntsb.gov/carol-repgen/api/Aviation/ReportMain/GenerateNewestReport/85494/pdf,11/3/2012,Roanoke,Texas,United States,33.04972,-97.232223,0,0,Non-Fatal,non-fatal,False
85519,CEN13LA046,https://data.ntsb.gov/carol-repgen/api/Aviation/ReportMain/GenerateNewestReport/85519/pdf,11/5/2012,Groesbeck,Texas,United States,31.427778,-96.470832,1,0,Fatal,fatal,True
85532,CEN13CA053,https://data.ntsb.gov/carol-repgen/api/Aviation/ReportMain/GenerateNewestReport/85532/pdf,11/6/2012,Bryan,Texas,United States,30.715555,-96.333335,0,0,Non-Fatal,non-fatal,False
85551,CEN13LA056,https://data.ntsb.gov/carol-repgen/api/Aviation/ReportMain/GenerateNewestReport/85551/pdf,11/9/2012,La Grange,Texas,United States,29.928333,-96.946388,0,0,Non-Fatal,non-fatal,False
85590,CEN13LA057,https://data.ntsb.gov/carol-repgen/api/Aviation/ReportMain/GenerateNewestReport/85590/pdf,11/12/2012,San Antonio,Texas,United States,29.532777,-98.463607,0,0,Non-Fatal,non-fatal,False
85624,CEN13LA062,https://data.ntsb.gov/carol-repgen/api/Aviation/ReportMain/GenerateNewestReport/85624/pdf,11/18/2012,Jacksonville,Texas,United States,31.869443,-95.217498,1,0,Fatal,fatal,True
85648,CEN13LA068,https://data.ntsb.gov/carol-repgen/api/Aviation/ReportMain/GenerateNewestReport/85648/pdf,11/20/2012,San Antonio,Texas,United States,29.284721,-98.498054,0,0,Non-Fatal,non-fatal,False
85671,CEN13FA073,https://data.ntsb.gov/carol-repgen/api/Aviation/ReportMain/GenerateNewestReport/85671/pdf,11/26/2012,Wells,Texas,United States,31.470556,-94.940551,1,0,Fatal,fatal,True
85681,CEN13FA075,https://data.ntsb.gov/carol-repgen/api/Aviation/ReportMain/GenerateNewestReport/85681/pdf,11/27/2012,Childress,Texas,United States,34.420276,-100.240997,1,1,Fatal,fatal,True
85741,CEN13CA090,https://data.ntsb.gov/carol-repgen/api/Aviation/ReportMain/GenerateNewestReport/85741/pdf,12/1/2012,McKinney,Texas,United States,33.176944,-96.588607,0,0,Non-Fatal,non-fatal,False
85790,CEN13LA097,https://data.ntsb.gov/carol-repgen/api/Aviation/ReportMain/GenerateNewestReport/85790/pdf,12/8/2012,Moody,Texas,United States,31.190555,-97.407218,0,0,Non-Fatal,non-fatal,False
85796,CEN13LA099,https://data.ntsb.gov/carol-repgen/api/Aviation/ReportMain/GenerateNewestReport/85796/pdf,12/7/2012,Abilene,Texas,United States,32.411388,-99.681945,0,0,Non-Fatal,non-fatal,False
85804,CEN13FA100,https://data.ntsb.gov/carol-repgen/api/Aviation/ReportMain/GenerateNewestReport/85804/pdf,12/13/2012,Combine,Texas,United States,32.510276,-96.503051,2,0,Fatal,fatal,True
85817,CEN13LA104,https://data.ntsb.gov/carol-repgen/api/Aviation/ReportMain/GenerateNewestReport/85817/pdf,12/7/2012,Arcola,Texas,United States,29.369091,-95.450271,0,0,Non-Fatal,non-fatal,False
85824,CEN13FA105,https://data.ntsb.gov/carol-repgen/api/Aviation/ReportMain/GenerateNewestReport/85824/pdf,12/14/2012,Amarillo,Texas,United States,34.949165,-101.580833,2,0,Fatal,fatal,True
85826,CEN13CA106,https://data.ntsb.gov/carol-repgen/api/Aviation/ReportMain/GenerateNewestReport/85826/pdf,12/15/2012,Bellview,Texas,United States,29.940834,-96.245002,0,0,Non-Fatal,non-fatal,False
85887,CEN13LA111,https://data.ntsb.gov/carol-repgen/api/Aviation/ReportMain/GenerateNewestReport/85887/pdf,12/19/2012,Graham,Texas,United States,33.112499,-98.533889,0,0,Non-Fatal,non-fatal,False
85892,CEN13CA114,https://data.ntsb.gov/carol-repgen/api/Aviation/ReportMain/GenerateNewestReport/85892/pdf,12/24/2012,McAllen,Texas,United States,26.186388,-98.2275,0,0,Non-Fatal,non-fatal,False
85907,CEN13LA116,https://data.ntsb.gov/carol-repgen/api/Aviation/ReportMain/GenerateNewestReport/85907/pdf,12/24/2012,San Antonio,Texas,United States,29.570278,-98.46833,0,1,Non-Fatal,non-fatal,False
85916,CEN13LA118,https://data.ntsb.gov/carol-repgen/api/Aviation/ReportMain/GenerateNewestReport/85916/pdf,12/31/2012,Mc Allen,Texas,United States,26.172222,-98.236389,0,0,Non-Fatal,non-fatal,False
85955,CEN13CA124,https://data.ntsb.gov/carol-repgen/api/Aviation/ReportMain/GenerateNewestReport/85955/pdf,1/2/2013,Menard,Texas,United States,30.932222,-99.809165,0,0,Non-Fatal,non-fatal,False
86006,CEN13FA131,https://data.ntsb.gov/carol-repgen/api/Aviation/ReportMain/GenerateNewestReport/86006/pdf,1/12/2013,Paris,Texas,United States,33.662498,-95.547775,3,0,Fatal,fatal,True
86074,CEN13LA141,https://data.ntsb.gov/carol-repgen/api/Aviation/ReportMain/GenerateNewestReport/86074/pdf,1/23/2013,McKinney,Texas,United States,33.177776,-96.58889,0,0,Non-Fatal,non-fatal,False
86110,CEN13LA147,https://data.ntsb.gov/carol-repgen/api/Aviation/ReportMain/GenerateNewestReport/86110/pdf,1/28/2013,Gainsville,Texas,United States,33.651668,-97.197219,0,0,Non-Fatal,non-fatal,False
86129,CEN13LA148,https://data.ntsb.gov/carol-repgen/api/Aviation/ReportMain/GenerateNewestReport/86129/pdf,2/1/2013,Gillett,Texas,United States,29.13611,-97.66278,0,2,Non-Fatal,non-fatal,False
86138,CEN13LA149,https://data.ntsb.gov/carol-repgen/api/Aviation/ReportMain/GenerateNewestReport/86138/pdf,2/1/2013,College Station,Texas,United States,30.556388,-96.572776,0,0,Non-Fatal,non-fatal,False
86148,CEN13LA152,https://data.ntsb.gov/carol-repgen/api/Aviation/ReportMain/GenerateNewestReport/86148/pdf,1/31/2013,Victoria,Texas,United States,28.75361,-96.984169,0,0,Non-Fatal,non-fatal,False
86191,CEN13LA157,https://data.ntsb.gov/carol-repgen/api/Aviation/ReportMain/GenerateNewestReport/86191/pdf,2/8/2013,Garden City,Texas,United States,31.587499,-101.509162,0,0,Non-Fatal,non-fatal,False
86224,CEN13CA162,https://data.ntsb.gov/carol-repgen/api/Aviation/ReportMain/GenerateNewestReport/86224/pdf,2/14/2013,Abilene,Texas,United States,32.508609,-99.607223,0,0,Non-Fatal,non-fatal,False
86253,CEN13TA165,https://data.ntsb.gov/carol-repgen/api/Aviation/ReportMain/GenerateNewestReport/86253/pdf,2/14/2013,Pine Springs,Texas,United States,31.054456,-97.562797,0,0,Non-Fatal,non-fatal,False
86266,CEN13LA170,https://data.ntsb.gov/carol-repgen/api/Aviation/ReportMain/GenerateNewestReport/86266/pdf,2/16/2013,Austin,Texas,United States,30.397499,-97.56639,0,0,Non-Fatal,non-fatal,False
86350,CEN13LA186,https://data.ntsb.gov/carol-repgen/api/Aviation/ReportMain/GenerateNewestReport/86350/pdf,3/4/2013,Terrell,Texas,United States,32.68861,-96.310279,1,0,Fatal,fatal,True
86429,CEN13LA193,https://data.ntsb.gov/carol-repgen/api/Aviation/ReportMain/GenerateNewestReport/86429/pdf,3/13/2013,Seguin,Texas,United States,29.570278,-97.966941,0,0,Non-Fatal,non-fatal,False
86431,CEN13LA195,https://data.ntsb.gov/carol-repgen/api/Aviation/ReportMain/GenerateNewestReport/86431/pdf,3/13/2013,Brenham,Texas,United States,30.219722,-96.374443,0,0,Non-Fatal,non-fatal,False
86444,CEN13CA197,https://data.ntsb.gov/carol-repgen/api/Aviation/ReportMain/GenerateNewestReport/86444/pdf,3/16/2013,Baytown,Texas,United States,29.725833,-94.988334,0,0,Non-Fatal,non-fatal,False
86490,CEN13CA203,https://data.ntsb.gov/carol-repgen/api/Aviation/ReportMain/GenerateNewestReport/86490/pdf,3/21/2013,Dumas,Texas,United States,35.856945,-102.012779,0,0,Non-Fatal,non-fatal,False
86515,CEN13FA205,https://data.ntsb.gov/carol-repgen/api/Aviation/ReportMain/GenerateNewestReport/86515/pdf,3/26/2013,Caddo,Texas,United States,32.707221,-98.624168,1,0,Fatal,fatal,True
86516,CEN13CA206,https://data.ntsb.gov/carol-repgen/api/Aviation/ReportMain/GenerateNewestReport/86516/pdf,2/13/2013,Sabinal,Texas,United States,29.20861,-99.525833,0,0,Non-Fatal,non-fatal,False
86522,CEN13CA207,https://data.ntsb.gov/carol-repgen/api/Aviation/ReportMain/GenerateNewestReport/86522/pdf,3/26/2013,Fort Stockton,Texas,United States,30.915555,-102.916114,0,0,Non-Fatal,non-fatal,False
86528,CEN13LA208,https://data.ntsb.gov/carol-repgen/api/Aviation/ReportMain/GenerateNewestReport/86528/pdf,3/27/2013,Amarillo,Texas,United States,35.080276,-101.756385,0,0,Non-Fatal,non-fatal,False
86533,CEN13LA209,https://data.ntsb.gov/carol-repgen/api/Aviation/ReportMain/GenerateNewestReport/86533/pdf,3/26/2013,College Station,Texas,United States,30.588054,-96.361114,0,0,Non-Fatal,non-fatal,False
86538,CEN13LA211,https://data.ntsb.gov/carol-repgen/api/Aviation/ReportMain/GenerateNewestReport/86538/pdf,3/26/2013,Plainview,Texas,United States,34.189441,-101.720993,0,0,Non-Fatal,non-fatal,False
86549,CEN13FA213,https://data.ntsb.gov/carol-repgen/api/Aviation/ReportMain/GenerateNewestReport/86549/pdf,3/30/2013,Littlefield,Texas,United States,33.923889,-102.386665,2,0,Fatal,fatal,True
86620,CEN13CA222,https://data.ntsb.gov/carol-repgen/api/Aviation/ReportMain/GenerateNewestReport/86620/pdf,4/8/2013,Manvel,Texas,United States,29.478889,-95.326385,0,0,Non-Fatal,non-fatal,False
86649,CEN13LA227,https://data.ntsb.gov/carol-repgen/api/Aviation/ReportMain/GenerateNewestReport/86649/pdf,4/14/2013,Winnie,Texas,United States,29.818889,-94.431114,0,1,Non-Fatal,non-fatal,False
86693,CEN13LA233,https://data.ntsb.gov/carol-repgen/api/Aviation/ReportMain/GenerateNewestReport/86693/pdf,4/19/2013,Paris,Texas,United States,33.63639,-95.450553,0,0,Non-Fatal,non-fatal,False
86853,CEN13FA269,https://data.ntsb.gov/carol-repgen/api/Aviation/ReportMain/GenerateNewestReport/86853/pdf,5/9/2013,Fredericksburg,Texas,United States,30.239444,-98.885002,2,0,Fatal,fatal,True
86893,CEN13CA276,https://data.ntsb.gov/carol-repgen/api/Aviation/ReportMain/GenerateNewestReport/86893/pdf,5/10/2013,Fort Worth,Texas,United States,32.987499,-97.318611,0,0,Non-Fatal,non-fatal,False
86895,CEN13CA277,https://data.ntsb.gov/carol-repgen/api/Aviation/ReportMain/GenerateNewestReport/86895/pdf,5/11/2013,Groesbeck,Texas,United States,31.519561,-96.53038,0,0,Non-Fatal,non-fatal,False
86934,CEN13LA283,https://data.ntsb.gov/carol-repgen/api/Aviation/ReportMain/GenerateNewestReport/86934/pdf,5/8/2013,Winnie,Texas,United States,29.818889,-94.431114,0,0,Non-Fatal,non-fatal,False
86987,CEN13LA293,https://data.ntsb.gov/carol-repgen/api/Aviation/ReportMain/GenerateNewestReport/86987/pdf,5/23/2013,Longview,Texas,United States,32.533889,-94.711387,0,0,Non-Fatal,non-fatal,False
87017,CEN13LA305,https://data.ntsb.gov/carol-repgen/api/Aviation/ReportMain/GenerateNewestReport/87017/pdf,5/23/2013,Beaumont,Texas,United States,30.070278,-94.214996,0,0,Non-Fatal,non-fatal,False
87028,CEN13CA302,https://data.ntsb.gov/carol-repgen/api/Aviation/ReportMain/GenerateNewestReport/87028/pdf,4/14/2013,Diboll,Texas,United States,31.309165,-94.668891,0,1,Non-Fatal,non-fatal,False
87029,CEN13CA303,https://data.ntsb.gov/carol-repgen/api/Aviation/ReportMain/GenerateNewestReport/87029/pdf,4/13/2013,Livingston,Texas,United States,30.685832,-95.017776,0,0,Non-Fatal,non-fatal,False
87109,CEN13LA323,https://data.ntsb.gov/carol-repgen/api/Aviation/ReportMain/GenerateNewestReport/87109/pdf,6/1/2013,Hamlin,Texas,United States,32.849445,-100.13639,0,0,Non-Fatal,non-fatal,False
87120,CEN13LA325,https://data.ntsb.gov/carol-repgen/api/Aviation/ReportMain/GenerateNewestReport/87120/pdf,6/6/2013,New Braunfels,Texas,United States,29.638334,-98.033332,0,0,Non-Fatal,non-fatal,False
87141,CEN13FA331,https://data.ntsb.gov/carol-repgen/api/Aviation/ReportMain/GenerateNewestReport/87141/pdf,6/7/2013,Grand Prairie,Texas,United States,32.696388,-97.0475,0,0,Non-Fatal,non-fatal,False
87154,CEN13FA338,https://data.ntsb.gov/carol-repgen/api/Aviation/ReportMain/GenerateNewestReport/87154/pdf,6/11/2013,Pampa,Texas,United States,35.89611,-100.999168,1,1,Fatal,fatal,True
87157,CEN13LA341,https://data.ntsb.gov/carol-repgen/api/Aviation/ReportMain/GenerateNewestReport/87157/pdf,6/8/2013,Farnsworth,Texas,United States,36.321109,-100.966392,0,0,Non-Fatal,non-fatal,False
87215,CEN13FA352,https://data.ntsb.gov/carol-repgen/api/Aviation/ReportMain/GenerateNewestReport/87215/pdf,6/15/2013,Victoria,Texas,United States,28.844444,-96.904724,0,5,Non-Fatal,non-fatal,False
87227,CEN13LA354,https://data.ntsb.gov/carol-repgen/api/Aviation/ReportMain/GenerateNewestReport/87227/pdf,6/17/2013,Carrizo Springs,Texas,United States,28.522222,-99.823608,0,0,Non-Fatal,non-fatal,False
87234,CEN13LA360,https://data.ntsb.gov/carol-repgen/api/Aviation/ReportMain/GenerateNewestReport/87234/pdf,6/19/2013,Danbury,Texas,United States,29.237777,-95.340278,0,0,Non-Fatal,non-fatal,False
87277,CEN13LA369,https://data.ntsb.gov/carol-repgen/api/Aviation/ReportMain/GenerateNewestReport/87277/pdf,6/22/2013,Navasota,Texas,United States,30.384445,-96.115554,0,1,Non-Fatal,non-fatal,False
87323,CEN13LA377,https://data.ntsb.gov/carol-repgen/api/Aviation/ReportMain/GenerateNewestReport/87323/pdf,6/27/2013,Marion,Texas,United States,29.504999,-98.002777,1,0,Fatal,fatal,True
87346,CEN13LA380,https://data.ntsb.gov/carol-repgen/api/Aviation/ReportMain/GenerateNewestReport/87346/pdf,6/26/2013,Odessa,Texas,United States,31.921388,-102.387222,0,0,Non-Fatal,non-fatal,False
87368,CEN13CA389,https://data.ntsb.gov/carol-repgen/api/Aviation/ReportMain/GenerateNewestReport/87368/pdf,7/2/2013,Bridgeport,Texas,United States,33.171943,-97.823608,0,0,Non-Fatal,non-fatal,False
87418,CEN13CA399,https://data.ntsb.gov/carol-repgen/api/Aviation/ReportMain/GenerateNewestReport/87418/pdf,7/2/2013,Vernon,Texas,United States,34.071109,-99.253608,0,0,Non-Fatal,non-fatal,False
87455,CEN13LA406,https://data.ntsb.gov/carol-repgen/api/Aviation/ReportMain/GenerateNewestReport/87455/pdf,7/3/2013,Lufkin,Texas,United States,31.147777,-94.770835,0,0,Non-Fatal,non-fatal,False
87463,CEN13CA407,https://data.ntsb.gov/carol-repgen/api/Aviation/ReportMain/GenerateNewestReport/87463/pdf,7/11/2013,Weslaco,Texas,United States,26.177499,-97.973052,0,0,Non-Fatal,non-fatal,False
87464,CEN13LA408,https://data.ntsb.gov/carol-repgen/api/Aviation/ReportMain/GenerateNewestReport/87464/pdf,7/10/2013,Houston,Texas,United States,29.984443,-95.341392,0,0,Non-Fatal,non-fatal,False
87549,CEN13CA430,https://data.ntsb.gov/carol-repgen/api/Aviation/ReportMain/GenerateNewestReport/87549/pdf,7/13/2013,Schertz,Texas,United States,29.622222,-98.276107,0,0,Non-Fatal,non-fatal,False
87566,CEN13FA432,https://data.ntsb.gov/carol-repgen/api/Aviation/ReportMain/GenerateNewestReport/87566/pdf,7/25/2013,Amarillo,Texas,United States,35.190555,-101.82333,1,0,Fatal,fatal,True
87587,CEN13LA437,https://data.ntsb.gov/carol-repgen/api/Aviation/ReportMain/GenerateNewestReport/87587/pdf,7/26/2013,Danbury,Texas,United States,29.244167,-95.345001,0,1,Non-Fatal,non-fatal,False
87607,CEN13CA445,https://data.ntsb.gov/carol-repgen/api/Aviation/ReportMain/GenerateNewestReport/87607/pdf,7/26/2013,Burnet,Texas,United States,30.736665,-98.236389,0,0,Non-Fatal,non-fatal,False
87637,CEN13CA450,https://data.ntsb.gov/carol-repgen/api/Aviation/ReportMain/GenerateNewestReport/87637/pdf,7/31/2013,Mesquite,Texas,United States,32.746944,-96.530281,0,0,Non-Fatal,non-fatal,False
87673,CEN13CA458,https://data.ntsb.gov/carol-repgen/api/Aviation/ReportMain/GenerateNewestReport/87673/pdf,8/3/2013,Lago Vista,Texas,United States,30.498611,-97.969444,0,0,Non-Fatal,non-fatal,False
87681,CEN13LA461,https://data.ntsb.gov/carol-repgen/api/Aviation/ReportMain/GenerateNewestReport/87681/pdf,8/5/2013,Ackerly,Texas,United States,32.481109,-101.716941,2,0,Fatal,fatal,True
87724,CEN13FA476,https://data.ntsb.gov/carol-repgen/api/Aviation/ReportMain/GenerateNewestReport/87724/pdf,8/11/2013,Ennis,Texas,United States,32.203609,-96.707496,2,0,Fatal,fatal,True
87754,CEN13LA478,https://data.ntsb.gov/carol-repgen/api/Aviation/ReportMain/GenerateNewestReport/87754/pdf,8/10/2013,Killeen,Texas,United States,31.085832,-97.686386,0,0,Non-Fatal,non-fatal,False
87764,CEN13CA485,https://data.ntsb.gov/carol-repgen/api/Aviation/ReportMain/GenerateNewestReport/87764/pdf,8/4/2013,Hermleigh,Texas,United States,32.581665,-100.763336,0,0,Non-Fatal,non-fatal,False
87942,CEN13LA518,https://data.ntsb.gov/carol-repgen/api/Aviation/ReportMain/GenerateNewestReport/87942/pdf,9/2/2013,Pearsall,Texas,United States,28.822221,-99.108886,0,0,Non-Fatal,non-fatal,False
87945,CEN13LA519,https://data.ntsb.gov/carol-repgen/api/Aviation/ReportMain/GenerateNewestReport/87945/pdf,8/13/2013,Eagle Lake,Texas,United States,29.521667,-96.205833,0,0,Non-Fatal,non-fatal,False
87965,CEN13LA523,https://data.ntsb.gov/carol-repgen/api/Aviation/ReportMain/GenerateNewestReport/87965/pdf,8/28/2013,Wichita Falls,Texas,United States,33.800571,-98.509719,0,0,Non-Fatal,non-fatal,False
87993,CEN13LA531,https://data.ntsb.gov/carol-repgen/api/Aviation/ReportMain/GenerateNewestReport/87993/pdf,8/30/2013,Paris,Texas,United States,33.61906,-95.489601,0,0,Non-Fatal,non-fatal,False
88000,CEN13LA534,https://data.ntsb.gov/carol-repgen/api/Aviation/ReportMain/GenerateNewestReport/88000/pdf,9/7/2013,Castroville,Texas,United States,29.338333,-98.850555,0,0,Non-Fatal,non-fatal,False
88032,CEN13CA544,https://data.ntsb.gov/carol-repgen/api/Aviation/ReportMain/GenerateNewestReport/88032/pdf,9/11/2013,Victoria,Texas,United States,28.846666,-96.912498,0,0,Non-Fatal,non-fatal,False
88055,CEN13LA551,https://data.ntsb.gov/carol-repgen/api/Aviation/ReportMain/GenerateNewestReport/88055/pdf,9/4/2013,Clemville,Texas,United States,29.046112,-96.116668,0,0,Non-Fatal,non-fatal,False
88158,CEN13LA567,https://data.ntsb.gov/carol-repgen/api/Aviation/ReportMain/GenerateNewestReport/88158/pdf,9/22/2013,Laguna Park,Texas,United States,31.863332,-97.381111,0,0,Non-Fatal,non-fatal,False
88171,WPR14CA002,https://data.ntsb.gov/carol-repgen/api/Aviation/ReportMain/GenerateNewestReport/88171/pdf,10/1/2013,Waco,Texas,United States,31.549722,-97.129165,0,0,Non-Fatal,non-fatal,False
88177,WPR14LA008,https://data.ntsb.gov/carol-repgen/api/Aviation/ReportMain/GenerateNewestReport/88177/pdf,10/6/2013,Paducah,Texas,United States,33.939445,-100.072219,1,0,Fatal,fatal,True
88178,WPR14CA009,https://data.ntsb.gov/carol-repgen/api/Aviation/ReportMain/GenerateNewestReport/88178/pdf,10/6/2013,Tilden,Texas,United States,28.466667,-98.583335,0,1,Non-Fatal,non-fatal,False
88181,CEN14LA002,https://data.ntsb.gov/carol-repgen/api/Aviation/ReportMain/GenerateNewestReport/88181/pdf,10/8/2013,Brownwood,Texas,United States,31.711944,-98.986114,0,1,Non-Fatal,non-fatal,False
88183,CEN14LA003,https://data.ntsb.gov/carol-repgen/api/Aviation/ReportMain/GenerateNewestReport/88183/pdf,10/7/2013,Belleville,Texas,United States,29.940834,-96.245002,0,1,Non-Fatal,non-fatal,False
88291,CEN14LA015,https://data.ntsb.gov/carol-repgen/api/Aviation/ReportMain/GenerateNewestReport/88291/pdf,10/23/2013,Galveston,Texas,United States,29.166666,-95.10028,2,0,Fatal,fatal,True
88292,CEN14CA016,https://data.ntsb.gov/carol-repgen/api/Aviation/ReportMain/GenerateNewestReport/88292/pdf,10/23/2013,Eagle Pass,Texas,United States,28.620555,-100.156387,0,0,Non-Fatal,non-fatal,False
88325,CEN14LA021,https://data.ntsb.gov/carol-repgen/api/Aviation/ReportMain/GenerateNewestReport/88325/pdf,10/19/2013,New Waverly,Texas,United States,30.547222,-95.436386,0,0,Non-Fatal,non-fatal,False
88326,CEN14LA022,https://data.ntsb.gov/carol-repgen/api/Aviation/ReportMain/GenerateNewestReport/88326/pdf,10/23/2013,Omaha,Texas,United States,33.169723,-94.739959,0,0,Non-Fatal,non-fatal,False
88328,CEN14CA023,https://data.ntsb.gov/carol-repgen/api/Aviation/ReportMain/GenerateNewestReport/88328/pdf,10/10/2013,Tomball,Texas,United States,30.121944,-95.559448,0,0,Non-Fatal,non-fatal,False
88329,CEN14FA024,https://data.ntsb.gov/carol-repgen/api/Aviation/ReportMain/GenerateNewestReport/88329/pdf,10/27/2013,Boerne,Texas,United States,29.799156,-98.729286,1,0,Fatal,fatal,True
88330,CEN14CA025,https://data.ntsb.gov/carol-repgen/api/Aviation/ReportMain/GenerateNewestReport/88330/pdf,10/24/2013,El Paso,Texas,United States,31.719165,-106.236114,0,0,Non-Fatal,non-fatal,False
88339,CEN14CA027,https://data.ntsb.gov/carol-repgen/api/Aviation/ReportMain/GenerateNewestReport/88339/pdf,10/25/2013,Raymondville,Texas,United States,26.481388,-97.783058,0,1,Non-Fatal,non-fatal,False
88358,CEN14LA031,https://data.ntsb.gov/carol-repgen/api/Aviation/ReportMain/GenerateNewestReport/88358/pdf,10/25/2013,Borger,Texas,United States,35.700832,-101.393608,0,0,Non-Fatal,non-fatal,False
88412,CEN14FA047,https://data.ntsb.gov/carol-repgen/api/Aviation/ReportMain/GenerateNewestReport/88412/pdf,11/11/2013,Amarillo,Texas,United States,35.250556,-101.675834,3,0,Fatal,fatal,True
88419,CEN14FA051,https://data.ntsb.gov/carol-repgen/api/Aviation/ReportMain/GenerateNewestReport/88419/pdf,11/12/2013,Junction,Texas,United States,30.483055,-99.796943,2,0,Fatal,fatal,True
88421,CEN13LA581,https://data.ntsb.gov/carol-repgen/api/Aviation/ReportMain/GenerateNewestReport/88421/pdf,9/30/2013,Rio Vista,Texas,United States,32.233333,-97.380554,0,0,Non-Fatal,non-fatal,False
88434,CEN14LA056,https://data.ntsb.gov/carol-repgen/api/Aviation/ReportMain/GenerateNewestReport/88434/pdf,11/16/2013,Anahuac,Texas,United States,29.759445,-94.666664,1,0,Fatal,fatal,True
88437,CEN14FA057,https://data.ntsb.gov/carol-repgen/api/Aviation/ReportMain/GenerateNewestReport/88437/pdf,11/17/2013,Spring,Texas,United States,30.059444,-95.550552,2,0,Fatal,fatal,True
88439,CEN14LA058,https://data.ntsb.gov/carol-repgen/api/Aviation/ReportMain/GenerateNewestReport/88439/pdf,11/16/2013,San Antonio,Texas,United States,29.332777,-98.462501,0,1,Non-Fatal,non-fatal,False
88440,CEN14CA059,https://data.ntsb.gov/carol-repgen/api/Aviation/ReportMain/GenerateNewestReport/88440/pdf,11/10/2013,Lubbock,Texas,United States,33.485553,-101.812774,0,0,Non-Fatal,non-fatal,False
88446,CEN14CA061,https://data.ntsb.gov/carol-repgen/api/Aviation/ReportMain/GenerateNewestReport/88446/pdf,11/15/2013,Cypress,Texas,United States,30.042778,-95.667221,0,0,Non-Fatal,non-fatal,False
88556,CEN14LA087,https://data.ntsb.gov/carol-repgen/api/Aviation/ReportMain/GenerateNewestReport/88556/pdf,12/16/2013,Leakey,Texas,United States,29.7196,-99.760574,0,1,Non-Fatal,non-fatal,False
88562,CEN14LA089,https://data.ntsb.gov/carol-repgen/api/Aviation/ReportMain/GenerateNewestReport/88562/pdf,12/17/2013,Hondo,Texas,United States,29.359167,-99.177497,0,0,Non-Fatal,non-fatal,False
88600,CEN14LA094,https://data.ntsb.gov/carol-repgen/api/Aviation/ReportMain/GenerateNewestReport/88600/pdf,12/28/2013,Gladewater,Texas,United States,32.526111,-94.968612,0,0,Non-Fatal,non-fatal,False
88622,CEN14CA098,https://data.ntsb.gov/carol-repgen/api/Aviation/ReportMain/GenerateNewestReport/88622/pdf,1/2/2014,Temple,Texas,United States,31.151945,-97.407775,0,0,Non-Fatal,non-fatal,False
88639,CEN14CA104,https://data.ntsb.gov/carol-repgen/api/Aviation/ReportMain/GenerateNewestReport/88639/pdf,1/5/2014,Cotulla,Texas,United States,28.456666,-99.21833,0,0,Non-Fatal,non-fatal,False
88657,CEN14CA108,https://data.ntsb.gov/carol-repgen/api/Aviation/ReportMain/GenerateNewestReport/88657/pdf,1/9/2014,Beaumont,Texas,United States,30.074443,-94.218612,0,0,Non-Fatal,non-fatal,False
88661,CEN14GA109,https://data.ntsb.gov/carol-repgen/api/Aviation/ReportMain/GenerateNewestReport/88661/pdf,1/10/2014,Encino,Texas,United States,27.036945,-98.168609,0,1,Non-Fatal,non-fatal,False
88701,CEN14TA116,https://data.ntsb.gov/carol-repgen/api/Aviation/ReportMain/GenerateNewestReport/88701/pdf,1/16/2014,Spring,Texas,United States,30.061944,-95.55278,0,0,Non-Fatal,non-fatal,False
88703,CEN14LA118,https://data.ntsb.gov/carol-repgen/api/Aviation/ReportMain/GenerateNewestReport/88703/pdf,1/21/2014,Willow Park,Texas,United States,32.750785,-97.770935,0,0,Non-Fatal,non-fatal,False
88791,CEN14LA133,https://data.ntsb.gov/carol-repgen/api/Aviation/ReportMain/GenerateNewestReport/88791/pdf,2/9/2014,Lexington,Texas,United States,30.414167,-96.965553,0,0,Non-Fatal,non-fatal,False
88795,CEN14LA136,https://data.ntsb.gov/carol-repgen/api/Aviation/ReportMain/GenerateNewestReport/88795/pdf,2/9/2014,Houston,Texas,United States,30.061666,-95.55278,0,1,Non-Fatal,non-fatal,False
88803,CEN14FA140,https://data.ntsb.gov/carol-repgen/api/Aviation/ReportMain/GenerateNewestReport/88803/pdf,2/16/2014,Shepherd,Texas,United States,30.476943,-94.920555,1,0,Fatal,fatal,True
88806,CEN14CA142,https://data.ntsb.gov/carol-repgen/api/Aviation/ReportMain/GenerateNewestReport/88806/pdf,2/14/2014,Bonham,Texas,United States,33.821945,-96.119163,0,0,Non-Fatal,non-fatal,False
88807,CEN14FA143,https://data.ntsb.gov/carol-repgen/api/Aviation/ReportMain/GenerateNewestReport/88807/pdf,2/18/2014,Breckenridge,Texas,United States,32.696945,-98.882499,1,0,Fatal,fatal,True
88811,CEN14FA145,https://data.ntsb.gov/carol-repgen/api/Aviation/ReportMain/GenerateNewestReport/88811/pdf,2/19/2014,Pearland,Texas,United States,29.517499,-95.260276,1,0,Fatal,fatal,True
88848,CEN14LA149,https://data.ntsb.gov/carol-repgen/api/Aviation/ReportMain/GenerateNewestReport/88848/pdf,2/24/2014,Presidio,Texas,United States,29.636943,-103.984443,0,1,Non-Fatal,non-fatal,False
88908,CEN14CA157,https://data.ntsb.gov/carol-repgen/api/Aviation/ReportMain/GenerateNewestReport/88908/pdf,3/1/2014,Adrian,Texas,United States,35.401943,-102.808334,0,0,Non-Fatal,non-fatal,False
88939,CEN14LA165,https://data.ntsb.gov/carol-repgen/api/Aviation/ReportMain/GenerateNewestReport/88939/pdf,3/18/2014,Wichita Falls,Texas,United States,33.860553,-98.49028,0,0,Non-Fatal,non-fatal,False
88962,CEN14CA170,https://data.ntsb.gov/carol-repgen/api/Aviation/ReportMain/GenerateNewestReport/88962/pdf,3/21/2014,Crockett,Texas,United States,31.309268,-95.449516,0,0,Non-Fatal,non-fatal,False
88989,CEN14LA174,https://data.ntsb.gov/carol-repgen/api/Aviation/ReportMain/GenerateNewestReport/88989/pdf,3/30/2014,Oglesby,Texas,United States,31.311388,-97.361114,0,0,Non-Fatal,non-fatal,False
88997,CEN14CA177,https://data.ntsb.gov/carol-repgen/api/Aviation/ReportMain/GenerateNewestReport/88997/pdf,2/28/2014,Fredericksburg,Texas,United States,30.243055,-98.909164,0,0,Non-Fatal,non-fatal,False
89034,CEN14LA192,https://data.ntsb.gov/carol-repgen/api/Aviation/ReportMain/GenerateNewestReport/89034/pdf,4/9/2014,Littlefield,Texas,United States,33.910251,-102.330375,1,0,Fatal,fatal,True
89058,CEN14LA197,https://data.ntsb.gov/carol-repgen/api/Aviation/ReportMain/GenerateNewestReport/89058/pdf,3/22/2014,Menard,Texas,United States,30.910375,-99.780586,0,0,Non-Fatal,non-fatal,False
89059,CEN14FA198,https://data.ntsb.gov/carol-repgen/api/Aviation/ReportMain/GenerateNewestReport/89059/pdf,4/12/2014,Denton,Texas,United States,33.416389,-97.446945,1,1,Fatal,fatal,True
89071,CEN14LA200,https://data.ntsb.gov/carol-repgen/api/Aviation/ReportMain/GenerateNewestReport/89071/pdf,4/16/2014,Fredericksburg,Texas,United States,30.219444,-99.14083,0,2,Non-Fatal,non-fatal,False
89103,CEN14LA213,https://data.ntsb.gov/carol-repgen/api/Aviation/ReportMain/GenerateNewestReport/89103/pdf,4/22/2014,Morton,Texas,United States,33.729167,-102.733886,0,1,Non-Fatal,non-fatal,False
89123,CEN14LA217,https://data.ntsb.gov/carol-repgen/api/Aviation/ReportMain/GenerateNewestReport/89123/pdf,4/25/2014,Llano,Texas,United States,30.776945,-98.661941,0,0,Non-Fatal,non-fatal,False
89126,CEN14FA219,https://data.ntsb.gov/carol-repgen/api/Aviation/ReportMain/GenerateNewestReport/89126/pdf,4/27/2014,Sweetwater,Texas,United States,32.483612,-100.445274,1,0,Fatal,fatal,True
89127,CEN14LA220,https://data.ntsb.gov/carol-repgen/api/Aviation/ReportMain/GenerateNewestReport/89127/pdf,4/25/2014,Spring,Texas,United States,30.063333,-95.553054,0,0,Non-Fatal,non-fatal,False
89129,CEN14LA222,https://data.ntsb.gov/carol-repgen/api/Aviation/ReportMain/GenerateNewestReport/89129/pdf,4/25/2014,Cleburne,Texas,United States,32.35361,-97.433891,0,0,Non-Fatal,non-fatal,False
89149,CEN14LA226,https://data.ntsb.gov/carol-repgen/api/Aviation/ReportMain/GenerateNewestReport/89149/pdf,4/25/2014,Greenville,Texas,United States,33.067779,-96.065277,0,0,Non-Fatal,non-fatal,False
89160,CEN14CA227,https://data.ntsb.gov/carol-repgen/api/Aviation/ReportMain/GenerateNewestReport/89160/pdf,5/2/2014,New Braunfels,Texas,United States,29.704999,-98.123886,0,0,Non-Fatal,non-fatal,False
89195,CEN14LA234,https://data.ntsb.gov/carol-repgen/api/Aviation/ReportMain/GenerateNewestReport/89195/pdf,5/10/2014,San Antonio,Texas,United States,29.336944,-98.471107,0,1,Non-Fatal,non-fatal,False
89282,CEN14LA253,https://data.ntsb.gov/carol-repgen/api/Aviation/ReportMain/GenerateNewestReport/89282/pdf,5/26/2014,Rockdale,Texas,United States,30.650928,-96.999221,0,0,Non-Fatal,non-fatal,False
89291,CEN14LA256,https://data.ntsb.gov/carol-repgen/api/Aviation/ReportMain/GenerateNewestReport/89291/pdf,4/22/2014,Horseshoe Bay,Texas,United States,30.526945,-98.358612,0,0,Non-Fatal,non-fatal,False
89295,CEN14LA259,https://data.ntsb.gov/carol-repgen/api/Aviation/ReportMain/GenerateNewestReport/89295/pdf,5/24/2014,Midlothian,Texas,United States,32.512779,-96.09333,0,1,Non-Fatal,non-fatal,False
89301,CEN14LA263,https://data.ntsb.gov/carol-repgen/api/Aviation/ReportMain/GenerateNewestReport/89301/pdf,5/27/2014,La Grange,Texas,United States,29.899999,-96.946945,0,0,Non-Fatal,non-fatal,False
89331,CEN14LA269,https://data.ntsb.gov/carol-repgen/api/Aviation/ReportMain/GenerateNewestReport/89331/pdf,5/31/2014,Temple,Texas,United States,31.151945,-97.407775,0,0,Non-Fatal,non-fatal,False
89334,CEN14CA271,https://data.ntsb.gov/carol-repgen/api/Aviation/ReportMain/GenerateNewestReport/89334/pdf,5/30/2014,Boerne,Texas,United States,29.722778,-98.694442,0,0,Non-Fatal,non-fatal,False
89375,CEN14LA276,https://data.ntsb.gov/carol-repgen/api/Aviation/ReportMain/GenerateNewestReport/89375/pdf,6/3/2014,Padre Island,Texas,United States,27.127777,-97.395835,0,0,Non-Fatal,non-fatal,False
89397,CEN14CA280,https://data.ntsb.gov/carol-repgen/api/Aviation/ReportMain/GenerateNewestReport/89397/pdf,6/6/2014,Wallis,Texas,United States,29.613332,-96.027778,0,0,Non-Fatal,non-fatal,False
89431,CEN14LA287,https://data.ntsb.gov/carol-repgen/api/Aviation/ReportMain/GenerateNewestReport/89431/pdf,6/12/2014,Pearsall,Texas,United States,28.879985,-99.089492,0,0,Non-Fatal,non-fatal,False
89445,CEN14LA290,https://data.ntsb.gov/carol-repgen/api/Aviation/ReportMain/GenerateNewestReport/89445/pdf,6/4/2014,Fort Worth,Texas,United States,32.829166,-97.535003,0,2,Non-Fatal,non-fatal,False
89456,CEN14LA293,https://data.ntsb.gov/carol-repgen/api/Aviation/ReportMain/GenerateNewestReport/89456/pdf,6/16/2014,Rockwall,Texas,United States,32.959999,-96.416946,0,0,Non-Fatal,non-fatal,False
89458,CEN14CA295,https://data.ntsb.gov/carol-repgen/api/Aviation/ReportMain/GenerateNewestReport/89458/pdf,6/16/2014,Pleasanton,Texas,United States,28.959333,-98.489418,0,0,Non-Fatal,non-fatal,False
89462,CEN14LA296,https://data.ntsb.gov/carol-repgen/api/Aviation/ReportMain/GenerateNewestReport/89462/pdf,6/17/2014,Decatur,Texas,United States,33.257778,-97.581108,0,0,Non-Fatal,non-fatal,False
89472,CEN14FA300,https://data.ntsb.gov/carol-repgen/api/Aviation/ReportMain/GenerateNewestReport/89472/pdf,6/18/2014,Lehman,Texas,United States,34.140502,-99.299072,3,0,Fatal,fatal,True
89486,CEN14CA303,https://data.ntsb.gov/carol-repgen/api/Aviation/ReportMain/GenerateNewestReport/89486/pdf,6/18/2014,Port Isabel,Texas,United States,26.182222,-97.352775,0,0,Non-Fatal,non-fatal,False
89518,CEN14CA310,https://data.ntsb.gov/carol-repgen/api/Aviation/ReportMain/GenerateNewestReport/89518/pdf,5/24/2014,Dallas,Texas,United States,32.737777,-96.969169,0,0,Non-Fatal,non-fatal,False
89557,CEN14FA325,https://data.ntsb.gov/carol-repgen/api/Aviation/ReportMain/GenerateNewestReport/89557/pdf,6/28/2014,Midlothian,Texas,United States,32.463611,-96.914718,1,0,Fatal,fatal,True
89572,CEN14LA331,https://data.ntsb.gov/carol-repgen/api/Aviation/ReportMain/GenerateNewestReport/89572/pdf,6/27/2014,Arlington,Texas,United States,32.669445,-97.237777,0,0,Non-Fatal,non-fatal,False
89589,CEN14LA334,https://data.ntsb.gov/carol-repgen/api/Aviation/ReportMain/GenerateNewestReport/89589/pdf,7/2/2014,Granbury,Texas,United States,32.436111,-97.813331,0,0,Non-Fatal,non-fatal,False
89612,CEN14CA341,https://data.ntsb.gov/carol-repgen/api/Aviation/ReportMain/GenerateNewestReport/89612/pdf,6/26/2014,Sudan,Texas,United States,34.202777,-102.554725,0,0,Non-Fatal,non-fatal,False
89614,CEN14LA342,https://data.ntsb.gov/carol-repgen/api/Aviation/ReportMain/GenerateNewestReport/89614/pdf,7/4/2014,Frankston,Texas,United States,32.08361,-95.435836,0,1,Non-Fatal,non-fatal,False
89615,CEN14CA343,https://data.ntsb.gov/carol-repgen/api/Aviation/ReportMain/GenerateNewestReport/89615/pdf,7/4/2014,Tomball,Texas,United States,30.061944,-95.55278,0,0,Non-Fatal,non-fatal,False
89628,CEN14LA347,https://data.ntsb.gov/carol-repgen/api/Aviation/ReportMain/GenerateNewestReport/89628/pdf,7/7/2014,Baytown,Texas,United States,29.775554,-94.940551,0,3,Non-Fatal,non-fatal,False
89635,CEN14LA350,https://data.ntsb.gov/carol-repgen/api/Aviation/ReportMain/GenerateNewestReport/89635/pdf,7/10/2014,Mt. Vernon,Texas,United States,33.089168,-95.260833,0,1,Non-Fatal,non-fatal,False
89637,CEN14LA351,https://data.ntsb.gov/carol-repgen/api/Aviation/ReportMain/GenerateNewestReport/89637/pdf,7/5/2014,Denton,Texas,United States,33.201946,-97.275001,0,0,Non-Fatal,non-fatal,False
89642,CEN14LA354,https://data.ntsb.gov/carol-repgen/api/Aviation/ReportMain/GenerateNewestReport/89642/pdf,7/1/2014,San Antonio,Texas,United States,29.533889,-98.469169,0,0,Non-Fatal,non-fatal,False
89671,CEN14CA367,https://data.ntsb.gov/carol-repgen/api/Aviation/ReportMain/GenerateNewestReport/89671/pdf,7/15/2014,Grand Praire,Texas,United States,32.7,-97.048057,0,0,Non-Fatal,non-fatal,False
89679,CEN14LA372,https://data.ntsb.gov/carol-repgen/api/Aviation/ReportMain/GenerateNewestReport/89679/pdf,7/13/2014,Wallis,Texas,United States,29.629165,-96.059593,1,0,Fatal,fatal,True
89698,CEN14FA377,https://data.ntsb.gov/carol-repgen/api/Aviation/ReportMain/GenerateNewestReport/89698/pdf,7/20/2014,Blackwell,Texas,United States,32.11,-100.399719,1,0,Fatal,fatal,True
89701,CEN14CA378,https://data.ntsb.gov/carol-repgen/api/Aviation/ReportMain/GenerateNewestReport/89701/pdf,7/19/2014,Fort Worth,Texas,United States,32.567222,-97.306663,0,1,Non-Fatal,non-fatal,False
89705,CEN14CA380,https://data.ntsb.gov/carol-repgen/api/Aviation/ReportMain/GenerateNewestReport/89705/pdf,7/14/2014,Wichita Falls,Texas,United States,33.947498,-98.616111,0,0,Non-Fatal,non-fatal,False
89715,CEN14CA384,https://data.ntsb.gov/carol-repgen/api/Aviation/ReportMain/GenerateNewestReport/89715/pdf,7/19/2014,Sterling City,Texas,United States,31.841943,-101.011665,0,0,Non-Fatal,non-fatal,False
89719,CEN14LA385,https://data.ntsb.gov/carol-repgen/api/Aviation/ReportMain/GenerateNewestReport/89719/pdf,7/19/2014,Wichita Falls,Texas,United States,33.860691,-98.489135,0,0,Non-Fatal,non-fatal,False
89731,CEN14LA388,https://data.ntsb.gov/carol-repgen/api/Aviation/ReportMain/GenerateNewestReport/89731/pdf,7/20/2014,Georgetown,Texas,United States,30.680833,-97.67778,0,0,Non-Fatal,non-fatal,False
89817,CEN14CA409,https://data.ntsb.gov/carol-repgen/api/Aviation/ReportMain/GenerateNewestReport/89817/pdf,8/6/2014,Brenham,Texas,United States,30.150936,-96.390724,0,0,Non-Fatal,non-fatal,False
89888,CEN14LA433,https://data.ntsb.gov/carol-repgen/api/Aviation/ReportMain/GenerateNewestReport/89888/pdf,7/29/2014,Bridgeport,Texas,United States,33.173332,-97.82917,0,0,Non-Fatal,non-fatal,False
89889,CEN14FA438,https://data.ntsb.gov/carol-repgen/api/Aviation/ReportMain/GenerateNewestReport/89889/pdf,8/15/2014,Bowie,Texas,United States,33.620555,-97.774169,2,0,Fatal,fatal,True
89896,CEN14FA437,https://data.ntsb.gov/carol-repgen/api/Aviation/ReportMain/GenerateNewestReport/89896/pdf,8/16/2014,Ranger,Texas,United States,32.444168,-98.591392,3,0,Fatal,fatal,True
89927,CEN14LA446,https://data.ntsb.gov/carol-repgen/api/Aviation/ReportMain/GenerateNewestReport/89927/pdf,8/5/2014,Burnet,Texas,United States,30.738889,-98.238609,0,0,Non-Fatal,non-fatal,False
89931,CEN14LA447,https://data.ntsb.gov/carol-repgen/api/Aviation/ReportMain/GenerateNewestReport/89931/pdf,8/21/2014,Fredericksburg,Texas,United States,30.248888,-98.91333,0,1,Non-Fatal,non-fatal,False
89934,CEN14FA448,https://data.ntsb.gov/carol-repgen/api/Aviation/ReportMain/GenerateNewestReport/89934/pdf,8/23/2014,Lago Vista,Texas,United States,30.506944,-98.055,1,0,Fatal,fatal,True
89942,CEN14LA451,https://data.ntsb.gov/carol-repgen/api/Aviation/ReportMain/GenerateNewestReport/89942/pdf,8/23/2014,Gordonville,Texas,United States,33.839443,-96.808891,0,2,Non-Fatal,non-fatal,False
89961,CEN14LA458,https://data.ntsb.gov/carol-repgen/api/Aviation/ReportMain/GenerateNewestReport/89961/pdf,8/26/2014,Houston,Texas,United States,29.77062,-95.679115,0,0,Non-Fatal,non-fatal,False
89977,CEN14LA465,https://data.ntsb.gov/carol-repgen/api/Aviation/ReportMain/GenerateNewestReport/89977/pdf,7/30/2014,Spring,Texas,United States,30.061944,-95.55278,0,0,Non-Fatal,non-fatal,False
89993,CEN14FA468,https://data.ntsb.gov/carol-repgen/api/Aviation/ReportMain/GenerateNewestReport/89993/pdf,8/31/2014,Abilene,Texas,United States,32.40139,-99.681663,2,1,Fatal,fatal,True
90008,CEN14LA474,https://data.ntsb.gov/carol-repgen/api/Aviation/ReportMain/GenerateNewestReport/90008/pdf,7/27/2014,Houston,Texas,United States,29.597778,-95.164169,0,0,Non-Fatal,non-fatal,False
90017,CEN14LA480,https://data.ntsb.gov/carol-repgen/api/Aviation/ReportMain/GenerateNewestReport/90017/pdf,8/16/2014,Hearne,Texas,United States,30.870836,-96.590377,0,1,Non-Fatal,non-fatal,False
90019,CEN14CA482,https://data.ntsb.gov/carol-repgen/api/Aviation/ReportMain/GenerateNewestReport/90019/pdf,8/10/2014,Bremond,Texas,United States,31.514999,-96.716392,0,0,Non-Fatal,non-fatal,False
90059,CEN14FA494,https://data.ntsb.gov/carol-repgen/api/Aviation/ReportMain/GenerateNewestReport/90059/pdf,9/10/2014,Austin,Texas,United States,30.233333,-97.199996,1,0,Fatal,fatal,True
90062,CEN14LA495,https://data.ntsb.gov/carol-repgen/api/Aviation/ReportMain/GenerateNewestReport/90062/pdf,9/9/2014,Houston,Texas,United States,29.607221,-95.158607,0,0,Non-Fatal,non-fatal,False
90074,CEN14LA497,https://data.ntsb.gov/carol-repgen/api/Aviation/ReportMain/GenerateNewestReport/90074/pdf,9/12/2014,Austin,Texas,United States,30.397499,-97.56639,0,1,Non-Fatal,non-fatal,False
90097,CEN14CA500,https://data.ntsb.gov/carol-repgen/api/Aviation/ReportMain/GenerateNewestReport/90097/pdf,9/15/2014,Beaumont,Texas,United States,29.950834,-94.020553,0,0,Non-Fatal,non-fatal,False
90101,CEN14CA503,https://data.ntsb.gov/carol-repgen/api/Aviation/ReportMain/GenerateNewestReport/90101/pdf,9/12/2014,Largo Vista,Texas,United States,30.454444,-97.988609,0,0,Non-Fatal,non-fatal,False
90106,CEN14FA505,https://data.ntsb.gov/carol-repgen/api/Aviation/ReportMain/GenerateNewestReport/90106/pdf,9/19/2014,Conroe,Texas,United States,30.36,-95.414443,0,0,Non-Fatal,non-fatal,False
90126,CEN14CA512,https://data.ntsb.gov/carol-repgen/api/Aviation/ReportMain/GenerateNewestReport/90126/pdf,9/7/2014,Alpine,Texas,United States,30.068611,-103.4225,0,0,Non-Fatal,non-fatal,False
90181,CEN14LA527,https://data.ntsb.gov/carol-repgen/api/Aviation/ReportMain/GenerateNewestReport/90181/pdf,9/27/2014,Shepherd,Texas,United States,30.471111,-94.91278,1,1,Fatal,fatal,True
90198,CEN15LA002,https://data.ntsb.gov/carol-repgen/api/Aviation/ReportMain/GenerateNewestReport/90198/pdf,10/2/2014,Woodsboro,Texas,United States,28.236665,-97.319168,0,3,Non-Fatal,non-fatal,False
90227,CEN15CA005,https://data.ntsb.gov/carol-repgen/api/Aviation/ReportMain/GenerateNewestReport/90227/pdf,10/4/2014,Arlington,Texas,United States,32.690021,-97.119071,0,0,Non-Fatal,non-fatal,False
90260,CEN15LA012,https://data.ntsb.gov/carol-repgen/api/Aviation/ReportMain/GenerateNewestReport/90260/pdf,10/15/2014,Orange,Texas,United States,30.068056,-93.801391,0,0,Non-Fatal,non-fatal,False
90276,CEN15LA018,https://data.ntsb.gov/carol-repgen/api/Aviation/ReportMain/GenerateNewestReport/90276/pdf,10/18/2014,Livingston,Texas,United States,30.966667,-94.071945,0,1,Non-Fatal,non-fatal,False
90297,CEN15CA025,https://data.ntsb.gov/carol-repgen/api/Aviation/ReportMain/GenerateNewestReport/90297/pdf,10/24/2014,Harper,Texas,United States,30.306667,-99.247497,0,0,Non-Fatal,non-fatal,False
90307,CEN15CA029,https://data.ntsb.gov/carol-repgen/api/Aviation/ReportMain/GenerateNewestReport/90307/pdf,10/25/2014,Reklaw,Texas,United States,31.843889,-94.95861,0,0,Non-Fatal,non-fatal,False
90321,CEN15FA032,https://data.ntsb.gov/carol-repgen/api/Aviation/ReportMain/GenerateNewestReport/90321/pdf,10/28/2014,Boerne,Texas,United States,29.849445,-98.737777,1,0,Fatal,fatal,True
90334,CEN15TA035,https://data.ntsb.gov/carol-repgen/api/Aviation/ReportMain/GenerateNewestReport/90334/pdf,10/23/2014,San Isidro,Texas,United States,26.550003,-98.71997,0,0,Non-Fatal,non-fatal,False
90356,CEN15LA038,https://data.ntsb.gov/carol-repgen/api/Aviation/ReportMain/GenerateNewestReport/90356/pdf,10/25/2014,Jacksonville,Texas,United States,31.940834,-95.136108,0,0,Non-Fatal,non-fatal,False
90377,CEN15LA042,https://data.ntsb.gov/carol-repgen/api/Aviation/ReportMain/GenerateNewestReport/90377/pdf,11/8/2014,Angleton,Texas,United States,29.165,-95.401107,0,0,Non-Fatal,non-fatal,False
90410,CEN15LA053,https://data.ntsb.gov/carol-repgen/api/Aviation/ReportMain/GenerateNewestReport/90410/pdf,11/20/2014,San Antonio,Texas,United States,29.320755,-98.470726,0,0,Non-Fatal,non-fatal,False
90413,DCA15CA025,https://data.ntsb.gov/carol-repgen/api/Aviation/ReportMain/GenerateNewestReport/90413/pdf,11/20/2014,Dallas,Texas,United States,32.841667,-96.849998,0,0,Non-Fatal,non-fatal,False
90418,CEN15FA056,https://data.ntsb.gov/carol-repgen/api/Aviation/ReportMain/GenerateNewestReport/90418/pdf,11/23/2014,McDade,Texas,United States,30.345832,-97.206665,1,0,Fatal,fatal,True
90420,CEN15LA057,https://data.ntsb.gov/carol-repgen/api/Aviation/ReportMain/GenerateNewestReport/90420/pdf,11/21/2014,Sugarland,Texas,United States,29.633611,-95.658058,0,0,Non-Fatal,non-fatal,False
90441,CEN15LA062,https://data.ntsb.gov/carol-repgen/api/Aviation/ReportMain/GenerateNewestReport/90441/pdf,11/30/2014,Addison,Texas,United States,32.968612,-96.836387,0,0,Non-Fatal,non-fatal,False
90443,CEN15LA063,https://data.ntsb.gov/carol-repgen/api/Aviation/ReportMain/GenerateNewestReport/90443/pdf,11/30/2014,McGregor,Texas,United States,31.474721,-97.320274,0,1,Non-Fatal,non-fatal,False
90462,CEN15CA067,https://data.ntsb.gov/carol-repgen/api/Aviation/ReportMain/GenerateNewestReport/90462/pdf,12/1/2014,Edinburg,Texas,United States,26.303888,-98.150833,0,0,Non-Fatal,non-fatal,False
90502,CEN15LA078,https://data.ntsb.gov/carol-repgen/api/Aviation/ReportMain/GenerateNewestReport/90502/pdf,12/15/2014,Houston,Texas,United States,29.621944,-95.656944,0,0,Non-Fatal,non-fatal,False
90513,CEN15FA081,https://data.ntsb.gov/carol-repgen/api/Aviation/ReportMain/GenerateNewestReport/90513/pdf,12/18/2014,Seagoville,Texas,United States,32.615001,-96.542503,1,0,Fatal,fatal,True
90518,CEN15FA083,https://data.ntsb.gov/carol-repgen/api/Aviation/ReportMain/GenerateNewestReport/90518/pdf,12/22/2014,Odessa,Texas,United States,31.983888,-102.528053,1,0,Fatal,fatal,True
90527,CEN15CA086,https://data.ntsb.gov/carol-repgen/api/Aviation/ReportMain/GenerateNewestReport/90527/pdf,11/10/2014,San Antonio,Texas,United States,29.723888,-98.45111,0,0,Non-Fatal,non-fatal,False
90546,CEN15LA089,https://data.ntsb.gov/carol-repgen/api/Aviation/ReportMain/GenerateNewestReport/90546/pdf,12/18/2014,San Antonio,Texas,United States,29.534444,-98.470558,0,0,Non-Fatal,non-fatal,False
90562,CEN15CA093,https://data.ntsb.gov/carol-repgen/api/Aviation/ReportMain/GenerateNewestReport/90562/pdf,12/29/2014,Horseshoe Bay,Texas,United States,30.526388,-98.359169,0,0,Non-Fatal,non-fatal,False
90568,CEN15CA095,https://data.ntsb.gov/carol-repgen/api/Aviation/ReportMain/GenerateNewestReport/90568/pdf,12/8/2014,Mount Pleasant,Texas,United States,33.093887,-94.887496,0,0,Non-Fatal,non-fatal,False
90579,CEN15LA099,https://data.ntsb.gov/carol-repgen/api/Aviation/ReportMain/GenerateNewestReport/90579/pdf,1/6/2015,Llano,Texas,United States,30.784166,-98.599998,0,0,Non-Fatal,non-fatal,False
90610,CEN15LA104,https://data.ntsb.gov/carol-repgen/api/Aviation/ReportMain/GenerateNewestReport/90610/pdf,1/16/2015,The Woodlands,Texas,United States,30.199722,-95.476387,1,0,Fatal,fatal,True
90676,CEN15LA132,https://data.ntsb.gov/carol-repgen/api/Aviation/ReportMain/GenerateNewestReport/90676/pdf,1/31/2015,Seadrift,Texas,United States,28.521667,-96.798332,0,0,Non-Fatal,non-fatal,False
90689,CEN15CA134,https://data.ntsb.gov/carol-repgen/api/Aviation/ReportMain/GenerateNewestReport/90689/pdf,1/23/2015,Georgetown,Texas,United States,30.68111,-97.679168,0,0,Non-Fatal,non-fatal,False
90690,CEN15FA135,https://data.ntsb.gov/carol-repgen/api/Aviation/ReportMain/GenerateNewestReport/90690/pdf,2/4/2015,Lubbock,Texas,United States,33.543334,-101.835556,1,0,Fatal,fatal,True
90692,CEN15FA136,https://data.ntsb.gov/carol-repgen/api/Aviation/ReportMain/GenerateNewestReport/90692/pdf,2/4/2015,Argyle,Texas,United States,33.086666,-97.199722,1,0,Fatal,fatal,True
90694,CEN15LA137,https://data.ntsb.gov/carol-repgen/api/Aviation/ReportMain/GenerateNewestReport/90694/pdf,2/5/2015,Andrews,Texas,United States,32.347221,-102.536666,0,2,Non-Fatal,non-fatal,False
90696,CEN15LA138,https://data.ntsb.gov/carol-repgen/api/Aviation/ReportMain/GenerateNewestReport/90696/pdf,2/5/2015,Slaton,Texas,United States,33.483612,-101.661109,0,0,Non-Fatal,non-fatal,False
90756,CEN15LA149,https://data.ntsb.gov/carol-repgen/api/Aviation/ReportMain/GenerateNewestReport/90756/pdf,2/20/2015,Lubbock,Texas,United States,33.485553,-101.812774,0,0,Non-Fatal,non-fatal,False
90782,CEN15CA153,https://data.ntsb.gov/carol-repgen/api/Aviation/ReportMain/GenerateNewestReport/90782/pdf,2/15/2015,Asherton,Texas,United States,28.559444,-99.410003,0,0,Non-Fatal,non-fatal,False
90784,CEN15FA154,https://data.ntsb.gov/carol-repgen/api/Aviation/ReportMain/GenerateNewestReport/90784/pdf,2/25/2015,Helotes,Texas,United States,29.563611,-98.719444,1,0,Fatal,fatal,True
90837,GAA15CA002,https://data.ntsb.gov/carol-repgen/api/Aviation/ReportMain/GenerateNewestReport/90837/pdf,3/5/2015,Justin,Texas,United States,33.049446,-97.292778,0,0,Non-Fatal,non-fatal,False
90863,CEN15LA169,https://data.ntsb.gov/carol-repgen/api/Aviation/ReportMain/GenerateNewestReport/90863/pdf,3/7/2015,Rusk,Texas,United States,31.869167,-95.217224,0,2,Non-Fatal,non-fatal,False
90889,CEN15FA174,https://data.ntsb.gov/carol-repgen/api/Aviation/ReportMain/GenerateNewestReport/90889/pdf,3/17/2015,El Paso,Texas,United States,31.951944,-105.972778,1,0,Fatal,fatal,True
90890,GAA15CA010,https://data.ntsb.gov/carol-repgen/api/Aviation/ReportMain/GenerateNewestReport/90890/pdf,3/12/2015,HONDO,Texas,United States,29.353055,-99.1725,0,0,Non-Fatal,non-fatal,False
90899,GAA15CA012,https://data.ntsb.gov/carol-repgen/api/Aviation/ReportMain/GenerateNewestReport/90899/pdf,3/19/2015,Midland,Texas,United States,31.942499,-102.201942,0,0,Non-Fatal,non-fatal,False
90919,CEN15LA179,https://data.ntsb.gov/carol-repgen/api/Aviation/ReportMain/GenerateNewestReport/90919/pdf,3/23/2015,Marathon,Texas,United States,30.2075,-103.243331,0,1,Non-Fatal,non-fatal,False
90947,CEN15LA182,https://data.ntsb.gov/carol-repgen/api/Aviation/ReportMain/GenerateNewestReport/90947/pdf,3/26/2015,Levelland,Texas,United States,33.552501,-102.372497,0,1,Non-Fatal,non-fatal,False
90948,GAA15CA023,https://data.ntsb.gov/carol-repgen/api/Aviation/ReportMain/GenerateNewestReport/90948/pdf,3/27/2015,Ropesville,Texas,United States,33.412776,-102.15361,0,0,Non-Fatal,non-fatal,False
90951,CEN15LA183,https://data.ntsb.gov/carol-repgen/api/Aviation/ReportMain/GenerateNewestReport/90951/pdf,3/29/2015,Gordonville,Texas,United States,33.837501,-96.816108,0,2,Non-Fatal,non-fatal,False
90977,GAA15CA032,https://data.ntsb.gov/carol-repgen/api/Aviation/ReportMain/GenerateNewestReport/90977/pdf,4/3/2015,Fort Davis,Texas,United States,30.520833,-104.134162,0,0,Non-Fatal,non-fatal,False
91041,CEN15LA199,https://data.ntsb.gov/carol-repgen/api/Aviation/ReportMain/GenerateNewestReport/91041/pdf,4/17/2015,Diboll,Texas,United States,31.166666,-94.791664,0,1,Non-Fatal,non-fatal,False
91064,CEN15LA206,https://data.ntsb.gov/carol-repgen/api/Aviation/ReportMain/GenerateNewestReport/91064/pdf,3/27/2015,Stephenville,Texas,United States,32.218612,-98.181114,0,2,Non-Fatal,non-fatal,False
91089,CEN15FA210,https://data.ntsb.gov/carol-repgen/api/Aviation/ReportMain/GenerateNewestReport/91089/pdf,4/27/2015,Austin,Texas,United States,30.242221,-97.789443,1,0,Fatal,fatal,True
91117,CEN15CA213,https://data.ntsb.gov/carol-repgen/api/Aviation/ReportMain/GenerateNewestReport/91117/pdf,11/23/2014,Mesquite,Texas,United States,32.743888,-96.531112,0,0,Non-Fatal,non-fatal,False
91118,CEN15FA214,https://data.ntsb.gov/carol-repgen/api/Aviation/ReportMain/GenerateNewestReport/91118/pdf,5/2/2015,Orange,Texas,United States,30.079166,-93.794723,0,2,Non-Fatal,non-fatal,False
91120,CEN15LA215,https://data.ntsb.gov/carol-repgen/api/Aviation/ReportMain/GenerateNewestReport/91120/pdf,3/24/2015,Circleville,Texas,United States,30.573055,-97.419723,0,0,Non-Fatal,non-fatal,False
91121,GAA15CA059,https://data.ntsb.gov/carol-repgen/api/Aviation/ReportMain/GenerateNewestReport/91121/pdf,5/1/2015,PEARLAND,Texas,United States,29.516944,-95.238609,0,0,Non-Fatal,non-fatal,False
91146,CEN15LA224,https://data.ntsb.gov/carol-repgen/api/Aviation/ReportMain/GenerateNewestReport/91146/pdf,5/6/2015,Argyle,Texas,United States,33.360713,-97.169937,0,2,Non-Fatal,non-fatal,False
91155,CEN15LA228,https://data.ntsb.gov/carol-repgen/api/Aviation/ReportMain/GenerateNewestReport/91155/pdf,5/11/2015,Ranger,Texas,United States,32.429443,-98.623886,0,1,Non-Fatal,non-fatal,False
91179,CEN15FA232,https://data.ntsb.gov/carol-repgen/api/Aviation/ReportMain/GenerateNewestReport/91179/pdf,5/16/2015,Spring Branch,Texas,United States,29.8125,-98.416389,4,0,Fatal,fatal,True
91209,CEN15LA239,https://data.ntsb.gov/carol-repgen/api/Aviation/ReportMain/GenerateNewestReport/91209/pdf,5/20/2015,Tivoli,Texas,United States,28.392221,-96.893333,0,0,Non-Fatal,non-fatal,False
91232,CEN15LA241,https://data.ntsb.gov/carol-repgen/api/Aviation/ReportMain/GenerateNewestReport/91232/pdf,5/25/2015,Hamilton,Texas,United States,31.77,-97.93,0,0,Non-Fatal,non-fatal,False
91266,CEN15LA252,https://data.ntsb.gov/carol-repgen/api/Aviation/ReportMain/GenerateNewestReport/91266/pdf,4/26/2015,Livingston,Texas,United States,30.685832,-95.018058,0,0,Non-Fatal,non-fatal,False
91267,CEN15LA243,https://data.ntsb.gov/carol-repgen/api/Aviation/ReportMain/GenerateNewestReport/91267/pdf,5/26/2015,Tulia,Texas,United States,34.479999,-101.919998,0,0,Non-Fatal,non-fatal,False
91269,CEN15FA245,https://data.ntsb.gov/carol-repgen/api/Aviation/ReportMain/GenerateNewestReport/91269/pdf,5/29/2015,Plainview,Texas,United States,34.165554,-101.715553,3,0,Fatal,fatal,True
91287,CEN15LA247,https://data.ntsb.gov/carol-repgen/api/Aviation/ReportMain/GenerateNewestReport/91287/pdf,5/28/2015,Horseshoe Bay,Texas,United States,30.526945,-98.358886,0,1,Non-Fatal,non-fatal,False
91289,GAA15LA101,https://data.ntsb.gov/carol-repgen/api/Aviation/ReportMain/GenerateNewestReport/91289/pdf,5/31/2015,Archer City,Texas,United States,33.519721,-98.656112,0,1,Non-Fatal,non-fatal,False
91297,GAA15CA104,https://data.ntsb.gov/carol-repgen/api/Aviation/ReportMain/GenerateNewestReport/91297/pdf,5/30/2015,Harlingen,Texas,United States,26.224166,-97.656944,0,0,Non-Fatal,non-fatal,False
91326,CEN15LA263,https://data.ntsb.gov/carol-repgen/api/Aviation/ReportMain/GenerateNewestReport/91326/pdf,6/6/2015,Alpine,Texas,United States,30.3675,-103.683609,0,0,Non-Fatal,non-fatal,False
91349,CEN15LA266,https://data.ntsb.gov/carol-repgen/api/Aviation/ReportMain/GenerateNewestReport/91349/pdf,6/9/2015,Quitman,Texas,United States,32.763889,-95.39167,0,1,Non-Fatal,non-fatal,False
91357,CEN15FA269,https://data.ntsb.gov/carol-repgen/api/Aviation/ReportMain/GenerateNewestReport/91357/pdf,6/14/2015,Fredericksburg,Texas,United States,30.234167,-98.902496,1,1,Fatal,fatal,True
91370,CEN15LA272,https://data.ntsb.gov/carol-repgen/api/Aviation/ReportMain/GenerateNewestReport/91370/pdf,6/14/2015,Van Horn,Texas,United States,31.021944,-104.821388,0,1,Non-Fatal,non-fatal,False
91461,CEN15LA286,https://data.ntsb.gov/carol-repgen/api/Aviation/ReportMain/GenerateNewestReport/91461/pdf,6/29/2015,Seagoville,Texas,United States,32.65063,-96.539848,0,0,Non-Fatal,non-fatal,False
91474,GAA15CA152,https://data.ntsb.gov/carol-repgen/api/Aviation/ReportMain/GenerateNewestReport/91474/pdf,6/24/2015,EDNA,Texas,United States,29.1825,-96.616668,0,0,Non-Fatal,non-fatal,False
91479,GAA15CA154,https://data.ntsb.gov/carol-repgen/api/Aviation/ReportMain/GenerateNewestReport/91479/pdf,6/25/2015,Eagle Lake,Texas,United States,29.61861,-96.410835,0,0,Non-Fatal,non-fatal,False
91481,CEN15FA287,https://data.ntsb.gov/carol-repgen/api/Aviation/ReportMain/GenerateNewestReport/91481/pdf,7/1/2015,Quinlan,Texas,United States,32.948055,-96.092781,2,0,Fatal,fatal,True
91493,CEN15FA291,https://data.ntsb.gov/carol-repgen/api/Aviation/ReportMain/GenerateNewestReport/91493/pdf,7/4/2015,Portland,Texas,United States,27.876111,-97.303054,2,0,Fatal,fatal,True
91494,CEN15LA292,https://data.ntsb.gov/carol-repgen/api/Aviation/ReportMain/GenerateNewestReport/91494/pdf,7/3/2015,Shenandoah,Texas,United States,30.185832,-95.447502,0,0,Non-Fatal,non-fatal,False
91506,CEN15LA296,https://data.ntsb.gov/carol-repgen/api/Aviation/ReportMain/GenerateNewestReport/91506/pdf,7/5/2015,Chico,Texas,United States,33.29,-97.836112,0,1,Non-Fatal,non-fatal,False
91507,CEN15LA297,https://data.ntsb.gov/carol-repgen/api/Aviation/ReportMain/GenerateNewestReport/91507/pdf,6/28/2015,Galveston,Texas,United States,29.265277,-94.860275,0,1,Non-Fatal,non-fatal,False
91511,GAA15CA162,https://data.ntsb.gov/carol-repgen/api/Aviation/ReportMain/GenerateNewestReport/91511/pdf,7/3/2015,Lubbock,Texas,United States,33.653888,-101.828887,0,0,Non-Fatal,non-fatal,False
91513,CEN15LA298,https://data.ntsb.gov/carol-repgen/api/Aviation/ReportMain/GenerateNewestReport/91513/pdf,7/7/2015,Houston,Texas,United States,29.972499,-95.45111,0,0,Non-Fatal,non-fatal,False
91553,GAA15CA179,https://data.ntsb.gov/carol-repgen/api/Aviation/ReportMain/GenerateNewestReport/91553/pdf,6/6/2015,Addison,Texas,United States,32.968055,-96.836112,0,0,Non-Fatal,non-fatal,False
91557,GAA15CA182,https://data.ntsb.gov/carol-repgen/api/Aviation/ReportMain/GenerateNewestReport/91557/pdf,7/3/2015,Llano,Texas,United States,30.782499,-98.661941,0,0,Non-Fatal,non-fatal,False
91559,CEN15FA305,https://data.ntsb.gov/carol-repgen/api/Aviation/ReportMain/GenerateNewestReport/91559/pdf,7/14/2015,Brazoria,Texas,United States,28.906389,-95.604164,2,0,Fatal,fatal,True
91580,GAA15CA188,https://data.ntsb.gov/carol-repgen/api/Aviation/ReportMain/GenerateNewestReport/91580/pdf,7/15/2015,Kingsland,Texas,United States,30.68361,-98.416946,0,0,Non-Fatal,non-fatal,False
91597,GAA15LA191,https://data.ntsb.gov/carol-repgen/api/Aviation/ReportMain/GenerateNewestReport/91597/pdf,7/17/2015,Livingston,Texas,United States,30.688888,-95.021942,0,0,Non-Fatal,non-fatal,False
91616,GAA15CA197,https://data.ntsb.gov/carol-repgen/api/Aviation/ReportMain/GenerateNewestReport/91616/pdf,7/21/2015,Atlanta,Texas,United States,33.119445,-94.163887,0,0,Non-Fatal,non-fatal,False
91617,CEN15LA314,https://data.ntsb.gov/carol-repgen/api/Aviation/ReportMain/GenerateNewestReport/91617/pdf,7/22/2015,Longview,Texas,United States,32.691112,-94.705558,0,1,Non-Fatal,non-fatal,False
91656,CEN15CA324,https://data.ntsb.gov/carol-repgen/api/Aviation/ReportMain/GenerateNewestReport/91656/pdf,7/22/2015,San Antonio,Texas,United States,29.336944,-98.471107,0,1,Non-Fatal,non-fatal,False
91682,CEN15LA329,https://data.ntsb.gov/carol-repgen/api/Aviation/ReportMain/GenerateNewestReport/91682/pdf,7/30/2015,Sulphur Springs,Texas,United States,33.140571,-95.61058,1,0,Fatal,fatal,True
91709,CEN15LA336,https://data.ntsb.gov/carol-repgen/api/Aviation/ReportMain/GenerateNewestReport/91709/pdf,8/4/2015,Austin,Texas,United States,30.167778,-97.639999,0,0,Non-Fatal,non-fatal,False
91760,CEN15LA350,https://data.ntsb.gov/carol-repgen/api/Aviation/ReportMain/GenerateNewestReport/91760/pdf,8/10/2015,Midland,Texas,United States,32.023612,-102.098609,0,0,Non-Fatal,non-fatal,False
91766,CEN15CA353,https://data.ntsb.gov/carol-repgen/api/Aviation/ReportMain/GenerateNewestReport/91766/pdf,8/10/2015,Tyler,Texas,United States,32.239723,-95.181945,0,0,Non-Fatal,non-fatal,False
91769,CEN15LA355,https://data.ntsb.gov/carol-repgen/api/Aviation/ReportMain/GenerateNewestReport/91769/pdf,8/7/2015,Granbury,Texas,United States,32.460483,-97.709625,0,0,Non-Fatal,non-fatal,False
91771,CEN15CA356,https://data.ntsb.gov/carol-repgen/api/Aviation/ReportMain/GenerateNewestReport/91771/pdf,8/12/2015,Pearland,Texas,United States,29.521389,-95.242225,0,0,Non-Fatal,non-fatal,False
91775,CEN15LA357,https://data.ntsb.gov/carol-repgen/api/Aviation/ReportMain/GenerateNewestReport/91775/pdf,7/13/2015,Clifton,Texas,United States,31.817222,-97.569442,0,0,Non-Fatal,non-fatal,False
91805,CEN15FA362,https://data.ntsb.gov/carol-repgen/api/Aviation/ReportMain/GenerateNewestReport/91805/pdf,8/17/2015,McAllen,Texas,United States,26.164443,-98.232498,2,0,Fatal,fatal,True
91815,CEN15LA366,https://data.ntsb.gov/carol-repgen/api/Aviation/ReportMain/GenerateNewestReport/91815/pdf,8/2/2015,Pecos,Texas,United States,31.382499,-103.510833,0,0,Non-Fatal,non-fatal,False
91827,GAA15CA232,https://data.ntsb.gov/carol-repgen/api/Aviation/ReportMain/GenerateNewestReport/91827/pdf,7/16/2015,Prairie Lea,Texas,United States,29.713054,-97.77639,0,0,Non-Fatal,non-fatal,False
91840,CEN15LA375,https://data.ntsb.gov/carol-repgen/api/Aviation/ReportMain/GenerateNewestReport/91840/pdf,8/22/2015,Carlos,Texas,United States,31.055255,-97.563514,0,2,Non-Fatal,non-fatal,False
91848,CEN15LA376,https://data.ntsb.gov/carol-repgen/api/Aviation/ReportMain/GenerateNewestReport/91848/pdf,8/23/2015,Hempstead,Texas,United States,30.111944,-96.038055,1,0,Fatal,fatal,True
91890,GAA15CA242,https://data.ntsb.gov/carol-repgen/api/Aviation/ReportMain/GenerateNewestReport/91890/pdf,8/29/2015,MIDLOTHIAN,Texas,United States,32.458889,-96.912498,0,0,Non-Fatal,non-fatal,False
91895,CEN15LA392,https://data.ntsb.gov/carol-repgen/api/Aviation/ReportMain/GenerateNewestReport/91895/pdf,8/31/2015,Houston,Texas,United States,29.809444,-95.668891,0,0,Non-Fatal,non-fatal,False
91900,CEN15LA395,https://data.ntsb.gov/carol-repgen/api/Aviation/ReportMain/GenerateNewestReport/91900/pdf,8/21/2015,Port O'Connor,Texas,United States,28.427499,-96.455276,0,0,Non-Fatal,non-fatal,False
91949,CEN15LA404,https://data.ntsb.gov/carol-repgen/api/Aviation/ReportMain/GenerateNewestReport/91949/pdf,9/5/2015,Midland,Texas,United States,31.908056,-102.200836,1,0,Fatal,fatal,True
91992,CEN15LA416,https://data.ntsb.gov/carol-repgen/api/Aviation/ReportMain/GenerateNewestReport/91992/pdf,9/17/2015,College Station,Texas,United States,30.588611,-96.363891,0,2,Non-Fatal,non-fatal,False
92052,CEN15FA422,https://data.ntsb.gov/carol-repgen/api/Aviation/ReportMain/GenerateNewestReport/92052/pdf,9/24/2015,Granbury,Texas,United States,32.438888,-97.813613,2,0,Fatal,fatal,True
92057,CEN15LA423,https://data.ntsb.gov/carol-repgen/api/Aviation/ReportMain/GenerateNewestReport/92057/pdf,9/24/2015,Woodville,Texas,United States,30.788055,-94.656387,0,1,Non-Fatal,non-fatal,False
92064,CEN15FA427,https://data.ntsb.gov/carol-repgen/api/Aviation/ReportMain/GenerateNewestReport/92064/pdf,9/27/2015,Lexington,Texas,United States,30.4125,-96.966667,1,0,Fatal,fatal,True
92066,CEN15LA428,https://data.ntsb.gov/carol-repgen/api/Aviation/ReportMain/GenerateNewestReport/92066/pdf,9/27/2015,Slidell,Texas,United States,33.363056,-97.176109,0,1,Non-Fatal,non-fatal,False
92104,CEN16FA001,https://data.ntsb.gov/carol-repgen/api/Aviation/ReportMain/GenerateNewestReport/92104/pdf,10/2/2015,Huntsville,Texas,United States,30.751943,-95.582496,1,0,Fatal,fatal,True
92113,CEN16LA003,https://data.ntsb.gov/carol-repgen/api/Aviation/ReportMain/GenerateNewestReport/92113/pdf,10/5/2015,Huntsville,Texas,United States,30.707221,-95.287223,0,0,Non-Fatal,non-fatal,False
92127,GAA16CA006,https://data.ntsb.gov/carol-repgen/api/Aviation/ReportMain/GenerateNewestReport/92127/pdf,10/5/2015,Devine,Texas,United States,29.107778,-98.946662,0,0,Non-Fatal,non-fatal,False
92130,GAA16CA007,https://data.ntsb.gov/carol-repgen/api/Aviation/ReportMain/GenerateNewestReport/92130/pdf,10/5/2015,BRYAN,Texas,United States,30.711666,-96.328613,0,0,Non-Fatal,non-fatal,False
92132,GAA15CA295,https://data.ntsb.gov/carol-repgen/api/Aviation/ReportMain/GenerateNewestReport/92132/pdf,9/30/2015,Houston,Texas,United States,29.823333,-95.675277,0,0,Non-Fatal,non-fatal,False
92141,CEN15LA439,https://data.ntsb.gov/carol-repgen/api/Aviation/ReportMain/GenerateNewestReport/92141/pdf,9/14/2015,Alice,Texas,United States,27.749761,-98.060272,0,0,Non-Fatal,non-fatal,False
92153,CEN16LA007,https://data.ntsb.gov/carol-repgen/api/Aviation/ReportMain/GenerateNewestReport/92153/pdf,10/11/2015,Decatur,Texas,United States,33.260276,-97.58139,1,0,Fatal,fatal,True
92161,CEN16LA008,https://data.ntsb.gov/carol-repgen/api/Aviation/ReportMain/GenerateNewestReport/92161/pdf,10/12/2015,Dallas,Texas,United States,32.847221,-96.851669,0,0,Non-Fatal,non-fatal,False
92196,CEN16LA015,https://data.ntsb.gov/carol-repgen/api/Aviation/ReportMain/GenerateNewestReport/92196/pdf,10/17/2015,Wallisville,Texas,United States,29.801111,-94.709724,0,0,Non-Fatal,non-fatal,False
92197,GAA16CA018,https://data.ntsb.gov/carol-repgen/api/Aviation/ReportMain/GenerateNewestReport/92197/pdf,10/12/2015,San Marcos,Texas,United States,29.892499,-97.864166,0,0,Non-Fatal,non-fatal,False
92200,CEN16LA016,https://data.ntsb.gov/carol-repgen/api/Aviation/ReportMain/GenerateNewestReport/92200/pdf,10/16/2015,Lancaster,Texas,United States,32.558887,-96.699722,0,1,Non-Fatal,non-fatal,False
92204,GAA16CA020,https://data.ntsb.gov/carol-repgen/api/Aviation/ReportMain/GenerateNewestReport/92204/pdf,10/6/2015,Jasper,Texas,United States,30.828887,-94.184448,0,0,Non-Fatal,non-fatal,False
92207,CEN16LA018,https://data.ntsb.gov/carol-repgen/api/Aviation/ReportMain/GenerateNewestReport/92207/pdf,10/12/2015,Waskom,Texas,United States,32.520557,-94.307777,0,0,Non-Fatal,non-fatal,False
92212,GAA16CA024,https://data.ntsb.gov/carol-repgen/api/Aviation/ReportMain/GenerateNewestReport/92212/pdf,10/17/2015,McKinney,Texas,United States,33.176944,-96.58889,0,0,Non-Fatal,non-fatal,False
92258,GAA16CA034,https://data.ntsb.gov/carol-repgen/api/Aviation/ReportMain/GenerateNewestReport/92258/pdf,10/12/2015,Abilene,Texas,United States,32.413333,-99.681945,0,0,Non-Fatal,non-fatal,False
92259,CEN16LA040,https://data.ntsb.gov/carol-repgen/api/Aviation/ReportMain/GenerateNewestReport/92259/pdf,11/14/2015,Sugarland,Texas,United States,29.882223,-95.916946,0,0,Non-Fatal,non-fatal,False
92290,GAA16CA042,https://data.ntsb.gov/carol-repgen/api/Aviation/ReportMain/GenerateNewestReport/92290/pdf,10/14/2015,Amarillo,Texas,United States,35.08139,-101.755836,0,0,Non-Fatal,non-fatal,False
92324,CEN16LA039,https://data.ntsb.gov/carol-repgen/api/Aviation/ReportMain/GenerateNewestReport/92324/pdf,11/13/2015,Alpine,Texas,United States,30.119443,-103.633056,0,2,Non-Fatal,non-fatal,False
92414,CEN16LA058,https://data.ntsb.gov/carol-repgen/api/Aviation/ReportMain/GenerateNewestReport/92414/pdf,12/7/2015,Angleton,Texas,United States,29.108612,-95.461944,0,0,Non-Fatal,non-fatal,False
92439,GAA16CA076,https://data.ntsb.gov/carol-repgen/api/Aviation/ReportMain/GenerateNewestReport/92439/pdf,12/10/2015,Abilene,Texas,United States,32.450832,-99.64833,0,0,Non-Fatal,non-fatal,False
92470,GAA16CA083,https://data.ntsb.gov/carol-repgen/api/Aviation/ReportMain/GenerateNewestReport/92470/pdf,12/17/2015,Friendswood,Texas,United States,29.504722,-95.175277,0,0,Non-Fatal,non-fatal,False
92496,CEN16LA068,https://data.ntsb.gov/carol-repgen/api/Aviation/ReportMain/GenerateNewestReport/92496/pdf,12/19/2015,Baytown,Texas,United States,29.761943,-94.848052,0,1,Non-Fatal,non-fatal,False
92529,CEN16LA078,https://data.ntsb.gov/carol-repgen/api/Aviation/ReportMain/GenerateNewestReport/92529/pdf,1/3/2016,Ingleside,Texas,United States,27.54,-97.120002,0,0,Non-Fatal,non-fatal,False
92530,GAA16CA095,https://data.ntsb.gov/carol-repgen/api/Aviation/ReportMain/GenerateNewestReport/92530/pdf,12/30/2015,Fort Worth,Texas,United States,32.814445,-97.364723,0,0,Non-Fatal,non-fatal,False
92568,CEN16FA083,https://data.ntsb.gov/carol-repgen/api/Aviation/ReportMain/GenerateNewestReport/92568/pdf,1/12/2016,Gilmer,Texas,United States,32.683887,-94.95111,1,0,Fatal,fatal,True
92578,CEN16FA087,https://data.ntsb.gov/carol-repgen/api/Aviation/ReportMain/GenerateNewestReport/92578/pdf,1/14/2016,Garden City,Texas,United States,31.964166,-101.658607,1,0,Fatal,fatal,True
92599,GAA16CA103,https://data.ntsb.gov/carol-repgen/api/Aviation/ReportMain/GenerateNewestReport/92599/pdf,1/18/2016,Breckenridge,Texas,United States,32.718887,-98.89167,0,0,Non-Fatal,non-fatal,False
92602,GAA16CA106,https://data.ntsb.gov/carol-repgen/api/Aviation/ReportMain/GenerateNewestReport/92602/pdf,1/19/2016,Terrell,Texas,United States,32.815555,-96.355003,0,0,Non-Fatal,non-fatal,False
92620,CEN16LA092,https://data.ntsb.gov/carol-repgen/api/Aviation/ReportMain/GenerateNewestReport/92620/pdf,1/5/2016,Sulfur Springs,Texas,United States,33.158332,-95.621109,0,0,Non-Fatal,non-fatal,False
92663,CEN16FA094,https://data.ntsb.gov/carol-repgen/api/Aviation/ReportMain/GenerateNewestReport/92663/pdf,2/1/2016,Arcola,Texas,United States,29.506944,-95.4775,1,1,Fatal,fatal,True
92675,GAA16LA117,https://data.ntsb.gov/carol-repgen/api/Aviation/ReportMain/GenerateNewestReport/92675/pdf,1/30/2016,Beaumont,Texas,United States,30.071388,-94.214164,0,0,Non-Fatal,non-fatal,False
92699,CEN16LA101,https://data.ntsb.gov/carol-repgen/api/Aviation/ReportMain/GenerateNewestReport/92699/pdf,1/31/2016,Bulverde,Texas,United States,29.739166,-98.45111,0,0,Non-Fatal,non-fatal,False
92703,CEN16LA102,https://data.ntsb.gov/carol-repgen/api/Aviation/ReportMain/GenerateNewestReport/92703/pdf,1/22/2016,Denton,Texas,United States,33.222778,-97.346946,0,0,Non-Fatal,non-fatal,False
92730,GAA16CA130,https://data.ntsb.gov/carol-repgen/api/Aviation/ReportMain/GenerateNewestReport/92730/pdf,2/11/2016,Hudson Oaks,Texas,United States,32.746387,-97.682502,0,0,Non-Fatal,non-fatal,False
92735,GAA16CA133,https://data.ntsb.gov/carol-repgen/api/Aviation/ReportMain/GenerateNewestReport/92735/pdf,2/3/2016,Dallas,Texas,United States,32.679443,-96.866111,0,0,Non-Fatal,non-fatal,False
92736,CEN16LA107,https://data.ntsb.gov/carol-repgen/api/Aviation/ReportMain/GenerateNewestReport/92736/pdf,2/16/2016,Bryan,Texas,United States,30.773889,-96.454444,0,1,Non-Fatal,non-fatal,False
92774,CEN16FA111,https://data.ntsb.gov/carol-repgen/api/Aviation/ReportMain/GenerateNewestReport/92774/pdf,2/28/2016,Navasota,Texas,United States,30.356388,-96.106666,4,0,Fatal,fatal,True
92789,CEN16FA114,https://data.ntsb.gov/carol-repgen/api/Aviation/ReportMain/GenerateNewestReport/92789/pdf,3/1/2016,Abilene,Texas,United States,32.455276,-99.649444,2,0,Fatal,fatal,True
92818,CEN16LA121,https://data.ntsb.gov/carol-repgen/api/Aviation/ReportMain/GenerateNewestReport/92818/pdf,3/4/2016,Normangee,Texas,United States,31.055833,-96.250556,0,1,Non-Fatal,non-fatal,False
92819,GAA16CA145,https://data.ntsb.gov/carol-repgen/api/Aviation/ReportMain/GenerateNewestReport/92819/pdf,3/5/2016,Canton,Texas,United States,32.615554,-95.868057,0,0,Non-Fatal,non-fatal,False
92831,GAA16CA147,https://data.ntsb.gov/carol-repgen/api/Aviation/ReportMain/GenerateNewestReport/92831/pdf,3/12/2016,Pearland,Texas,United States,29.52111,-95.242225,0,0,Non-Fatal,non-fatal,False
92849,CEN16CA126,https://data.ntsb.gov/carol-repgen/api/Aviation/ReportMain/GenerateNewestReport/92849/pdf,3/15/2016,Midland,Texas,United States,31.93361,-102.20417,0,0,Non-Fatal,non-fatal,False
92863,CEN16LA128,https://data.ntsb.gov/carol-repgen/api/Aviation/ReportMain/GenerateNewestReport/92863/pdf,3/18/2016,Longview,Texas,United States,32.505001,-94.698333,0,1,Non-Fatal,non-fatal,False
92874,GAA16CA155,https://data.ntsb.gov/carol-repgen/api/Aviation/ReportMain/GenerateNewestReport/92874/pdf,3/20/2016,Pflugerville,Texas,United States,30.395,-97.563056,0,0,Non-Fatal,non-fatal,False
92899,CEN16LA131,https://data.ntsb.gov/carol-repgen/api/Aviation/ReportMain/GenerateNewestReport/92899/pdf,3/26/2016,Del Rio,Texas,United States,29.372777,-100.927223,0,0,Non-Fatal,non-fatal,False
92904,CEN16LA134,https://data.ntsb.gov/carol-repgen/api/Aviation/ReportMain/GenerateNewestReport/92904/pdf,3/26/2016,Stephenville,Texas,United States,32.223888,-98.182777,0,2,Non-Fatal,non-fatal,False
92907,GAA16CA164,https://data.ntsb.gov/carol-repgen/api/Aviation/ReportMain/GenerateNewestReport/92907/pdf,3/26/2016,Lake Dallas,Texas,United States,33.132221,-97.014167,0,0,Non-Fatal,non-fatal,False
92923,GAA16CA171,https://data.ntsb.gov/carol-repgen/api/Aviation/ReportMain/GenerateNewestReport/92923/pdf,3/26/2016,Addison,Texas,United States,32.968334,-96.836387,0,0,Non-Fatal,non-fatal,False
92933,CEN16LA137,https://data.ntsb.gov/carol-repgen/api/Aviation/ReportMain/GenerateNewestReport/92933/pdf,3/26/2016,Marathon,Texas,United States,30.20861,-103.252502,0,1,Non-Fatal,non-fatal,False
92942,CEN16LA139,https://data.ntsb.gov/carol-repgen/api/Aviation/ReportMain/GenerateNewestReport/92942/pdf,3/29/2016,Beyersville,Texas,United States,30.503334,-97.239723,0,1,Non-Fatal,non-fatal,False
92976,CEN16FA145,https://data.ntsb.gov/carol-repgen/api/Aviation/ReportMain/GenerateNewestReport/92976/pdf,4/8/2016,Midlothian,Texas,United States,32.452777,-96.91333,1,0,Fatal,fatal,True
92980,CEN16FA146,https://data.ntsb.gov/carol-repgen/api/Aviation/ReportMain/GenerateNewestReport/92980/pdf,4/9/2016,Taylor,Texas,United States,30.686388,-97.292221,2,0,Fatal,fatal,True
92985,GAA16LA182,https://data.ntsb.gov/carol-repgen/api/Aviation/ReportMain/GenerateNewestReport/92985/pdf,4/8/2016,Weatherford,Texas,United States,32.771389,-97.73944,0,1,Non-Fatal,non-fatal,False
92987,GAA16CA184,https://data.ntsb.gov/carol-repgen/api/Aviation/ReportMain/GenerateNewestReport/92987/pdf,4/9/2016,Fentress,Texas,United States,29.768611,-97.775558,0,0,Non-Fatal,non-fatal,False
93003,CEN16LA151,https://data.ntsb.gov/carol-repgen/api/Aviation/ReportMain/GenerateNewestReport/93003/pdf,4/10/2016,Caldwell,Texas,United States,30.515556,-96.70417,0,0,Non-Fatal,non-fatal,False
93022,CEN16LA153,https://data.ntsb.gov/carol-repgen/api/Aviation/ReportMain/GenerateNewestReport/93022/pdf,4/1/2016,Addison,Texas,United States,32.968612,-96.836387,0,0,Non-Fatal,non-fatal,False
93052,CEN16LA161,https://data.ntsb.gov/carol-repgen/api/Aviation/ReportMain/GenerateNewestReport/93052/pdf,4/21/2016,Los Fresnos,Texas,United States,26.071666,-97.476387,0,1,Non-Fatal,non-fatal,False
93064,GAA16CA198,https://data.ntsb.gov/carol-repgen/api/Aviation/ReportMain/GenerateNewestReport/93064/pdf,4/24/2016,Sterling City,Texas,United States,31.642778,-100.968612,0,0,Non-Fatal,non-fatal,False
93077,GAA16CA206,https://data.ntsb.gov/carol-repgen/api/Aviation/ReportMain/GenerateNewestReport/93077/pdf,4/3/2016,Spring,Texas,United States,30.061944,-95.55278,0,0,Non-Fatal,non-fatal,False
93121,GAA16CA218,https://data.ntsb.gov/carol-repgen/api/Aviation/ReportMain/GenerateNewestReport/93121/pdf,5/1/2016,Plano,Texas,United States,33.022499,-96.836669,0,0,Non-Fatal,non-fatal,False
93129,GAA16CA223,https://data.ntsb.gov/carol-repgen/api/Aviation/ReportMain/GenerateNewestReport/93129/pdf,5/6/2016,Jasper,Texas,United States,30.886667,-94.035278,0,0,Non-Fatal,non-fatal,False
93135,GAA16CA225,https://data.ntsb.gov/carol-repgen/api/Aviation/ReportMain/GenerateNewestReport/93135/pdf,5/1/2016,Harlingen,Texas,United States,26.233055,-97.648612,0,0,Non-Fatal,non-fatal,False
93142,GAA16CA227,https://data.ntsb.gov/carol-repgen/api/Aviation/ReportMain/GenerateNewestReport/93142/pdf,5/9/2016,Plainview,Texas,United States,34.167499,-101.718612,0,0,Non-Fatal,non-fatal,False
93170,CEN16LA181,https://data.ntsb.gov/carol-repgen/api/Aviation/ReportMain/GenerateNewestReport/93170/pdf,5/14/2016,West,Texas,United States,31.840833,-97.074165,1,0,Fatal,fatal,True
93181,CEN16LA185,https://data.ntsb.gov/carol-repgen/api/Aviation/ReportMain/GenerateNewestReport/93181/pdf,5/13/2016,McKinney,Texas,United States,33.209445,-96.743614,0,0,Non-Fatal,non-fatal,False
93183,CEN16LA186,https://data.ntsb.gov/carol-repgen/api/Aviation/ReportMain/GenerateNewestReport/93183/pdf,5/15/2016,Alpine,Texas,United States,30.384166,-103.683609,0,0,Non-Fatal,non-fatal,False
93196,CEN16LA189,https://data.ntsb.gov/carol-repgen/api/Aviation/ReportMain/GenerateNewestReport/93196/pdf,4/30/2016,Killeen,Texas,United States,31.085832,-97.686386,0,0,Non-Fatal,non-fatal,False
93286,GAA16CA269,https://data.ntsb.gov/carol-repgen/api/Aviation/ReportMain/GenerateNewestReport/93286/pdf,5/28/2016,Midland,Texas,United States,31.940555,-102.198608,0,0,Non-Fatal,non-fatal,False
93293,CEN16LA203,https://data.ntsb.gov/carol-repgen/api/Aviation/ReportMain/GenerateNewestReport/93293/pdf,6/1/2016,Penwell,Texas,United States,31.747777,-102.548057,1,0,Fatal,fatal,True
93314,CEN16LA207,https://data.ntsb.gov/carol-repgen/api/Aviation/ReportMain/GenerateNewestReport/93314/pdf,6/3/2016,Alamo,Texas,United States,26.19111,-98.115554,0,0,Non-Fatal,non-fatal,False
93324,GAA16CA283,https://data.ntsb.gov/carol-repgen/api/Aviation/ReportMain/GenerateNewestReport/93324/pdf,5/28/2016,Spring Branch,Texas,United States,29.5025,-98.243888,0,0,Non-Fatal,non-fatal,False
93326,CEN16LA208,https://data.ntsb.gov/carol-repgen/api/Aviation/ReportMain/GenerateNewestReport/93326/pdf,6/6/2016,Ropesville,Texas,United States,33.413333,-102.154167,0,1,Non-Fatal,non-fatal,False
93338,GAA16CA290,https://data.ntsb.gov/carol-repgen/api/Aviation/ReportMain/GenerateNewestReport/93338/pdf,6/7/2016,Beaumont,Texas,United States,30.001943,-94.177223,0,0,Non-Fatal,non-fatal,False
93351,CEN16FA211,https://data.ntsb.gov/carol-repgen/api/Aviation/ReportMain/GenerateNewestReport/93351/pdf,6/9/2016,Houston,Texas,United States,29.659999,-95.289443,3,0,Fatal,fatal,True
93352,GAA16CA297,https://data.ntsb.gov/carol-repgen/api/Aviation/ReportMain/GenerateNewestReport/93352/pdf,6/7/2016,Chireno,Texas,United States,31.566944,-94.339164,0,0,Non-Fatal,non-fatal,False
93354,CEN16LA213,https://data.ntsb.gov/carol-repgen/api/Aviation/ReportMain/GenerateNewestReport/93354/pdf,6/9/2016,Laureles,Texas,United States,26.109167,-97.494163,0,0,Non-Fatal,non-fatal,False
93356,GAA16CA299,https://data.ntsb.gov/carol-repgen/api/Aviation/ReportMain/GenerateNewestReport/93356/pdf,6/10/2016,Sunrise Beach Village,Texas,United States,30.599445,-98.409446,0,0,Non-Fatal,non-fatal,False
93379,GAA16CA312,https://data.ntsb.gov/carol-repgen/api/Aviation/ReportMain/GenerateNewestReport/93379/pdf,6/10/2016,Gilmer,Texas,United States,32.698055,-94.94889,0,0,Non-Fatal,non-fatal,False
93389,CEN16LA219,https://data.ntsb.gov/carol-repgen/api/Aviation/ReportMain/GenerateNewestReport/93389/pdf,6/6/2016,Decatur,Texas,United States,33.264167,-97.46611,0,0,Non-Fatal,non-fatal,False
93395,CEN16LA221,https://data.ntsb.gov/carol-repgen/api/Aviation/ReportMain/GenerateNewestReport/93395/pdf,6/15/2016,Sealy,Texas,United States,29.733333,-96.059165,0,0,Non-Fatal,non-fatal,False
93412,CEN16LA225,https://data.ntsb.gov/carol-repgen/api/Aviation/ReportMain/GenerateNewestReport/93412/pdf,6/19/2016,Houston,Texas,United States,29.732221,-95.335556,0,1,Non-Fatal,non-fatal,False
93422,CEN16LA227,https://data.ntsb.gov/carol-repgen/api/Aviation/ReportMain/GenerateNewestReport/93422/pdf,6/19/2016,Bowie,Texas,United States,33.601665,-97.775558,0,0,Non-Fatal,non-fatal,False
93444,GAA16CA328,https://data.ntsb.gov/carol-repgen/api/Aviation/ReportMain/GenerateNewestReport/93444/pdf,6/17/2016,McAllen,Texas,United States,26.176944,-98.241111,0,0,Non-Fatal,non-fatal,False
93458,GAA16CA332,https://data.ntsb.gov/carol-repgen/api/Aviation/ReportMain/GenerateNewestReport/93458/pdf,6/23/2016,Lazbuddie,Texas,United States,34.45639,-102.556114,0,0,Non-Fatal,non-fatal,False
93505,GAA16CA347,https://data.ntsb.gov/carol-repgen/api/Aviation/ReportMain/GenerateNewestReport/93505/pdf,6/22/2016,Burnet,Texas,United States,30.747222,-98.234443,0,0,Non-Fatal,non-fatal,False
93539,GAA16CA359,https://data.ntsb.gov/carol-repgen/api/Aviation/ReportMain/GenerateNewestReport/93539/pdf,6/30/2016,Amarillo,Texas,United States,35.158611,-101.840553,0,0,Non-Fatal,non-fatal,False
93540,CEN16LA244,https://data.ntsb.gov/carol-repgen/api/Aviation/ReportMain/GenerateNewestReport/93540/pdf,7/2/2016,Bullard,Texas,United States,32.098888,-95.446945,0,0,Non-Fatal,non-fatal,False
93553,DCA16FA199,https://data.ntsb.gov/carol-repgen/api/Aviation/ReportMain/GenerateNewestReport/93553/pdf,7/6/2016,Italy,Texas,United States,32.246112,-96.919723,2,0,Fatal,fatal,True
93554,CEN16LA249,https://data.ntsb.gov/carol-repgen/api/Aviation/ReportMain/GenerateNewestReport/93554/pdf,6/14/2016,Port Lavaca,Texas,United States,28.659721,-96.435279,0,0,Non-Fatal,non-fatal,False
93555,CEN16LA251,https://data.ntsb.gov/carol-repgen/api/Aviation/ReportMain/GenerateNewestReport/93555/pdf,7/6/2016,Placedo,Texas,United States,28.664167,-96.776947,0,0,Non-Fatal,non-fatal,False
93560,CEN16LA254,https://data.ntsb.gov/carol-repgen/api/Aviation/ReportMain/GenerateNewestReport/93560/pdf,7/2/2016,Austin,Texas,United States,30.413055,-97.907218,0,0,Non-Fatal,non-fatal,False
93568,CEN16LA259,https://data.ntsb.gov/carol-repgen/api/Aviation/ReportMain/GenerateNewestReport/93568/pdf,7/7/2016,Bridgeport,Texas,United States,33.180278,-97.828613,0,0,Non-Fatal,non-fatal,False
93574,CEN16FA261,https://data.ntsb.gov/carol-repgen/api/Aviation/ReportMain/GenerateNewestReport/93574/pdf,7/8/2016,Houston,Texas,United States,29.817222,-95.665832,4,0,Fatal,fatal,True
93578,GAA16CA365,https://data.ntsb.gov/carol-repgen/api/Aviation/ReportMain/GenerateNewestReport/93578/pdf,6/30/2016,Stamford,Texas,United States,32.910556,-99.734169,0,0,Non-Fatal,non-fatal,False
93583,GAA16CA368,https://data.ntsb.gov/carol-repgen/api/Aviation/ReportMain/GenerateNewestReport/93583/pdf,7/5/2016,Spring Branch,Texas,United States,29.811666,-98.426109,0,0,Non-Fatal,non-fatal,False
93630,CEN16LA270,https://data.ntsb.gov/carol-repgen/api/Aviation/ReportMain/GenerateNewestReport/93630/pdf,7/19/2016,Weatherford,Texas,United States,32.727222,-97.68222,0,1,Non-Fatal,non-fatal,False
93654,GAA16CA385,https://data.ntsb.gov/carol-repgen/api/Aviation/ReportMain/GenerateNewestReport/93654/pdf,6/12/2016,Munday,Texas,United States,33.468334,-99.586112,0,0,Non-Fatal,non-fatal,False
93705,GAA16CA398,https://data.ntsb.gov/carol-repgen/api/Aviation/ReportMain/GenerateNewestReport/93705/pdf,7/27/2016,Denton,Texas,United States,33.201389,-97.198059,0,0,Non-Fatal,non-fatal,False
93715,DCA16MA204,https://www.ntsb.gov/investigations/AccidentReports/Reports/AAR1703.pdf,7/30/2016,Lockhart,Texas,United States,29.799999,-97.599998,16,0,Fatal,fatal,True
93803,CEN16FA315,https://data.ntsb.gov/carol-repgen/api/Aviation/ReportMain/GenerateNewestReport/93803/pdf,8/9/2016,Howe,Texas,United States,33.567501,-96.577499,1,1,Fatal,fatal,True
93823,CEN16CA319,https://data.ntsb.gov/carol-repgen/api/Aviation/ReportMain/GenerateNewestReport/93823/pdf,8/9/2016,Arlington,Texas,United States,32.665279,-97.093887,0,0,Non-Fatal,non-fatal,False
93902,CEN16LA336,https://data.ntsb.gov/carol-repgen/api/Aviation/ReportMain/GenerateNewestReport/93902/pdf,8/24/2016,Wichita Falls,Texas,United States,33.988887,-98.491943,0,0,Non-Fatal,non-fatal,False
93914,CEN16LA339,https://data.ntsb.gov/carol-repgen/api/Aviation/ReportMain/GenerateNewestReport/93914/pdf,8/27/2016,Clarksville,Texas,United States,33.601387,-95.073608,0,1,Non-Fatal,non-fatal,False
93940,CEN16FA346,https://data.ntsb.gov/carol-repgen/api/Aviation/ReportMain/GenerateNewestReport/93940/pdf,9/3/2016,Moss Hill,Texas,United States,30.27111,-94.799163,2,0,Fatal,fatal,True
93947,GAA16CA462,https://data.ntsb.gov/carol-repgen/api/Aviation/ReportMain/GenerateNewestReport/93947/pdf,9/5/2016,Hondo,Texas,United States,29.380832,-99.17472,0,0,Non-Fatal,non-fatal,False
93959,GAA16CA467,https://data.ntsb.gov/carol-repgen/api/Aviation/ReportMain/GenerateNewestReport/93959/pdf,9/5/2016,Atlanta,Texas,United States,33.124443,-94.16333,0,0,Non-Fatal,non-fatal,False
93960,CEN16LA356,https://data.ntsb.gov/carol-repgen/api/Aviation/ReportMain/GenerateNewestReport/93960/pdf,8/5/2016,Waco,Texas,United States,31.612222,-97.230278,0,0,Non-Fatal,non-fatal,False
93969,CEN16CA359,https://data.ntsb.gov/carol-repgen/api/Aviation/ReportMain/GenerateNewestReport/93969/pdf,8/26/2016,Wichita Falls,Texas,United States,33.988887,-98.491943,0,0,Non-Fatal,non-fatal,False
94003,GAA16CA481,https://data.ntsb.gov/carol-repgen/api/Aviation/ReportMain/GenerateNewestReport/94003/pdf,9/8/2016,San Antonio,Texas,United States,29.338888,-98.470001,0,0,Non-Fatal,non-fatal,False
94052,CEN16LA380,https://data.ntsb.gov/carol-repgen/api/Aviation/ReportMain/GenerateNewestReport/94052/pdf,9/21/2016,Mineral Wells,Texas,United States,32.781665,-98.060279,0,2,Non-Fatal,non-fatal,False
94128,CEN17LA003,https://data.ntsb.gov/carol-repgen/api/Aviation/ReportMain/GenerateNewestReport/94128/pdf,10/1/2016,Taylor,Texas,United States,30.572778,-97.443054,0,2,Non-Fatal,non-fatal,False
94140,CEN17FA005,https://data.ntsb.gov/carol-repgen/api/Aviation/ReportMain/GenerateNewestReport/94140/pdf,10/4/2016,Hitchcock,Texas,United States,29.273056,-95.071388,1,1,Fatal,fatal,True
